{"businesses": [{"id": "y4M-pPW9LZCG0R5euxMs-w", "alias": "rustic-bakery-larkspur-3", "name": "Rustic Bakery", "image_url": "https://s3-media4.fl.yelpcdn.com/bphoto/XgDXSuytYZJS0_ZhZIA04g/o.jpg", "is_closed": false, "url": "https://www.yelp.com/biz/rustic-bakery-larkspur-3?adjust_creative=K_rJo7VUP5JRiFo1Dydvmw&utm_campaign=yelp_api_v3&utm_medium=api_v3_business_search&utm_source=K_rJo7VUP5JRiFo1Dydvmw", "review_count": 427, "categories": [{"alias": "bakeries", "title": "Bakeries"}, {"alias": "cafes", "title": "Cafes"}], "rating": 4.0, "coordinates": {"latitude": 37.9478342, "longitude": -122.50824}, "transactions": ["delivery", "pickup"], "price": "$$", "location": {"address1": "2017 Larkspur Landing Cir", "address2": "", "address3": "Marin Country Mart", "city": "Larkspur", "zip_code": "94939", "country": "US", "state": "CA", "display_address": ["2017 Larkspur Landing Cir", "Marin Country Mart", "Larkspur, CA 94939"]}, "phone": "+14154619900", "display_phone": "(415) 461-9900", "distance": 16750.19158850195}, {"id": "9f7nYBcnrR9uA3DYmr5oiQ", "alias": "a-and-w-restaurant-san-rafael", "name": "A&W Restaurant", "image_url": "https://s3-media1.fl.yelpcdn.com/bphoto/B7GsMeZQDRerTD6bzejRhw/o.jpg", "is_closed": false, "url": "https://www.yelp.com/biz/a-and-w-restaurant-san-rafael?adjust_creative=K_rJo7VUP5JRiFo1Dydvmw&utm_campaign=yelp_api_v3&utm_medium=api_v3_business_search&utm_source=K_rJo7VUP5JRiFo1Dydvmw", "review_count": 132, "categories": [{"alias": "burgers", "title": "Burgers"}, {"alias": "hotdogs", "title": "Fast Food"}, {"alias": "hotdog", "title": "Hot Dogs"}], "rating": 3.5, "coordinates": {"latitude": 37.99677, "longitude": -122.53497}, "transactions": ["delivery"], "price": "$", "location": {"address1": "3741 Redwood Hwy", "address2": "", "address3": "", "city": "San Rafael", "zip_code": "94903", "country": "US", "state": "CA", "display_address": ["3741 Redwood Hwy", "San Rafael, CA 94903"]}, "phone": "+14154799652", "display_phone": "(415) 479-9652", "distance": 10896.069507508704}, {"id": "QfNQJvWWKqyHPQuppO76Cw", "alias": "john-and-jills-cheesecake-novato", "name": "John and Jill's Cheesecake", "image_url": "https://s3-media3.fl.yelpcdn.com/bphoto/kLZzvz6JJEE5QMsQN5xO6Q/o.jpg", "is_closed": false, "url": "https://www.yelp.com/biz/john-and-jills-cheesecake-novato?adjust_creative=K_rJo7VUP5JRiFo1Dydvmw&utm_campaign=yelp_api_v3&utm_medium=api_v3_business_search&utm_source=K_rJo7VUP5JRiFo1Dydvmw", "review_count": 41, "categories": [{"alias": "desserts", "title": "Desserts"}, {"alias": "bakeries", "title": "Bakeries"}], "rating": 4.5, "coordinates": {"latitude": 38.06817, "longitude": -122.53461}, "transactions": [], "price": "$", "location": {"address1": "4 Commercial Blvd", "address2": "", "address3": "", "city": "Novato", "zip_code": "94949", "country": "US", "state": "CA", "display_address": ["4 Commercial Blvd", "Novato, CA 94949"]}, "phone": "+14153821292", "display_phone": "(415) 382-1292", "distance": 3602.9470440646564}, {"id": "hO4qvEt-jg2Oot_Pi02kcA", "alias": "bay-thai-cuisine-san-rafael", "name": "Bay Thai Cuisine", "image_url": "https://s3-media2.fl.yelpcdn.com/bphoto/NE5OEuMrYP_DB5BMf6zK9A/o.jpg", "is_closed": false, "url": "https://www.yelp.com/biz/bay-thai-cuisine-san-rafael?adjust_creative=K_rJo7VUP5JRiFo1Dydvmw&utm_campaign=yelp_api_v3&utm_medium=api_v3_business_search&utm_source=K_rJo7VUP5JRiFo1Dydvmw", "review_count": 284, "categories": [{"alias": "thai", "title": "Thai"}], "rating": 4.0, "coordinates": {"latitude": 37.97254, "longitude": -122.52412}, "transactions": [], "price": "$$", "location": {"address1": "809 4th St", "address2": "", "address3": "", "city": "San Rafael", "zip_code": "94901", "country": "US", "state": "CA", "display_address": ["809 4th St", "San Rafael, CA 94901"]}, "phone": "+14154588845", "display_phone": "(415) 458-8845", "distance": 13736.170408401342}, {"id": "HK_eM-fxPVwN0SSfEQ9CZA", "alias": "kinka-sushi-petaluma", "name": "Kinka Sushi", "image_url": "https://s3-media1.fl.yelpcdn.com/bphoto/lQgf-7ZaN13z54dwqoLtIg/o.jpg", "is_closed": false, "url": "https://www.yelp.com/biz/kinka-sushi-petaluma?adjust_creative=K_rJo7VUP5JRiFo1Dydvmw&utm_campaign=yelp_api_v3&utm_medium=api_v3_business_search&utm_source=K_rJo7VUP5JRiFo1Dydvmw", "review_count": 104, "categories": [{"alias": "sushi", "title": "Sushi Bars"}, {"alias": "japanese", "title": "Japanese"}], "rating": 4.5, "coordinates": {"latitude": 38.23566, "longitude": -122.6024}, "transactions": [], "price": "$$", "location": {"address1": "1410 S McDowell Blvd", "address2": "Ste A", "address3": "", "city": "Petaluma", "zip_code": "94954", "country": "US", "state": "CA", "display_address": ["1410 S McDowell Blvd", "Ste A", "Petaluma, CA 94954"]}, "phone": "+17077781872", "display_phone": "(707) 778-1872", "distance": 16308.21474644527}, {"id": "o9XmKAnz9HlIFlGM5kk3XA", "alias": "papermill-creek-saloon-forest-knolls", "name": "Papermill Creek Saloon", "image_url": "https://s3-media1.fl.yelpcdn.com/bphoto/91z9ay9wi8i5Hv5j8lv0MA/o.jpg", "is_closed": false, "url": "https://www.yelp.com/biz/papermill-creek-saloon-forest-knolls?adjust_creative=K_rJo7VUP5JRiFo1Dydvmw&utm_campaign=yelp_api_v3&utm_medium=api_v3_business_search&utm_source=K_rJo7VUP5JRiFo1Dydvmw", "review_count": 32, "categories": [{"alias": "divebars", "title": "Dive Bars"}, {"alias": "newamerican", "title": "American (New)"}], "rating": 4.5, "coordinates": {"latitude": 38.0149385654458, "longitude": -122.690430879593}, "transactions": [], "price": "$", "location": {"address1": "1 Castro Ave", "address2": null, "address3": "", "city": "Forest Knolls", "zip_code": "94933", "country": "US", "state": "CA", "display_address": ["1 Castro Ave", "Forest Knolls, CA 94933"]}, "phone": "+14154889235", "display_phone": "(415) 488-9235", "distance": 14155.847807794142}, {"id": "KSu1pIqedN60QC_prGgy2g", "alias": "golden-state-pickle-works-petaluma", "name": "Golden State Pickle Works", "image_url": "https://s3-media1.fl.yelpcdn.com/bphoto/yKE1LfyaLc_XE6jDNwYYTg/o.jpg", "is_closed": false, "url": "https://www.yelp.com/biz/golden-state-pickle-works-petaluma?adjust_creative=K_rJo7VUP5JRiFo1Dydvmw&utm_campaign=yelp_api_v3&utm_medium=api_v3_business_search&utm_source=K_rJo7VUP5JRiFo1Dydvmw", "review_count": 1, "categories": [{"alias": "gourmet", "title": "Specialty Food"}, {"alias": "foodstands", "title": "Food Stands"}], "rating": 5.0, "coordinates": {"latitude": 38.2324698762992, "longitude": -122.644450105727}, "transactions": [], "location": {"address1": "", "address2": "", "address3": null, "city": "Petaluma", "zip_code": "94952", "country": "US", "state": "CA", "display_address": ["Petaluma, CA 94952"]}, "phone": "+15107177484", "display_phone": "(510) 717-7484", "distance": 17161.270483106913}, {"id": "qlCEPsIAreWHcx8tsf6rxQ", "alias": "patxis-pizza-greenbrae-2", "name": "Patxi's Pizza", "image_url": "https://s3-media4.fl.yelpcdn.com/bphoto/oH4xBIrKwzx7VApTKOeFtg/o.jpg", "is_closed": false, "url": "https://www.yelp.com/biz/patxis-pizza-greenbrae-2?adjust_creative=K_rJo7VUP5JRiFo1Dydvmw&utm_campaign=yelp_api_v3&utm_medium=api_v3_business_search&utm_source=K_rJo7VUP5JRiFo1Dydvmw", "review_count": 393, "categories": [{"alias": "pizza", "title": "Pizza"}, {"alias": "salad", "title": "Salad"}, {"alias": "italian", "title": "Italian"}], "rating": 3.0, "coordinates": {"latitude": 37.94604, "longitude": -122.5219}, "transactions": ["delivery", "pickup"], "price": "$$", "location": {"address1": "340 Bon Air Ctr", "address2": "", "address3": "", "city": "Greenbrae", "zip_code": "94903", "country": "US", "state": "CA", "display_address": ["340 Bon Air Ctr", "Greenbrae, CA 94903"]}, "phone": "+14155263889", "display_phone": "(415) 526-3889", "distance": 16645.88010482332}, {"id": "YmisT7KDyGuJS2efwq7cBQ", "alias": "yet-wah-restaurant-san-rafael-2", "name": "Yet Wah Restaurant", "image_url": "https://s3-media1.fl.yelpcdn.com/bphoto/O6Dd9z2b0oxn2sG3T_77GQ/o.jpg", "is_closed": false, "url": "https://www.yelp.com/biz/yet-wah-restaurant-san-rafael-2?adjust_creative=K_rJo7VUP5JRiFo1Dydvmw&utm_campaign=yelp_api_v3&utm_medium=api_v3_business_search&utm_source=K_rJo7VUP5JRiFo1Dydvmw", "review_count": 304, "categories": [{"alias": "chinese", "title": "Chinese"}], "rating": 3.0, "coordinates": {"latitude": 37.9735006, "longitude": -122.530398}, "transactions": ["delivery", "pickup"], "price": "$$", "location": {"address1": "1238 4th St", "address2": null, "address3": "", "city": "San Rafael", "zip_code": "94901", "country": "US", "state": "CA", "display_address": ["1238 4th St", "San Rafael, CA 94901"]}, "phone": "+14154609883", "display_phone": "(415) 460-9883", "distance": 13504.646629527515}, {"id": "_xpBlvCAgNp-CiZUh44tgQ", "alias": "arigatou-japanese-food-to-go-san-rafael", "name": "Arigatou Japanese Food to Go", "image_url": "https://s3-media3.fl.yelpcdn.com/bphoto/ZJi-MSWglC3C654s9QVgOQ/o.jpg", "is_closed": false, "url": "https://www.yelp.com/biz/arigatou-japanese-food-to-go-san-rafael?adjust_creative=K_rJo7VUP5JRiFo1Dydvmw&utm_campaign=yelp_api_v3&utm_medium=api_v3_business_search&utm_source=K_rJo7VUP5JRiFo1Dydvmw", "review_count": 149, "categories": [{"alias": "sushi", "title": "Sushi Bars"}, {"alias": "japanese", "title": "Japanese"}, {"alias": "asianfusion", "title": "Asian Fusion"}], "rating": 4.0, "coordinates": {"latitude": 37.97544, "longitude": -122.54486}, "transactions": ["delivery", "pickup"], "price": "$", "location": {"address1": "2046 4th St", "address2": "", "address3": "", "city": "San Rafael", "zip_code": "94901", "country": "US", "state": "CA", "display_address": ["2046 4th St", "San Rafael, CA 94901"]}, "phone": "+14154538990", "display_phone": "(415) 453-8990", "distance": 13081.003604948171}, {"id": "DtoeXGzL9g6IiJMfQkTcBQ", "alias": "state-room-san-rafael", "name": "State Room", "image_url": "https://s3-media4.fl.yelpcdn.com/bphoto/k9g7ZuMXX-QC6nxprqHKSA/o.jpg", "is_closed": false, "url": "https://www.yelp.com/biz/state-room-san-rafael?adjust_creative=K_rJo7VUP5JRiFo1Dydvmw&utm_campaign=yelp_api_v3&utm_medium=api_v3_business_search&utm_source=K_rJo7VUP5JRiFo1Dydvmw", "review_count": 457, "categories": [{"alias": "breweries", "title": "Breweries"}, {"alias": "tradamerican", "title": "American (Traditional)"}, {"alias": "bars", "title": "Bars"}], "rating": 4.0, "coordinates": {"latitude": 37.9733898881828, "longitude": -122.529000118375}, "transactions": ["delivery", "pickup", "restaurant_reservation"], "price": "$$", "location": {"address1": "1132 4th St", "address2": "", "address3": "", "city": "San Rafael", "zip_code": "94901", "country": "US", "state": "CA", "display_address": ["1132 4th St", "San Rafael, CA 94901"]}, "phone": "+14152957929", "display_phone": "(415) 295-7929", "distance": 13544.195479856771}, {"id": "2wuvedpN-JP52Yb3pQaqqQ", "alias": "fukusuke-japanese-restaurant-larkspur", "name": "Fukusuke Japanese Restaurant", "image_url": "https://s3-media2.fl.yelpcdn.com/bphoto/_FjQW8eS_uCeDB0rtdUhDA/o.jpg", "is_closed": false, "url": "https://www.yelp.com/biz/fukusuke-japanese-restaurant-larkspur?adjust_creative=K_rJo7VUP5JRiFo1Dydvmw&utm_campaign=yelp_api_v3&utm_medium=api_v3_business_search&utm_source=K_rJo7VUP5JRiFo1Dydvmw", "review_count": 198, "categories": [{"alias": "japanese", "title": "Japanese"}], "rating": 4.5, "coordinates": {"latitude": 37.93782, "longitude": -122.53355}, "transactions": [], "price": "$$", "location": {"address1": "578 Magnolia Ave", "address2": "", "address3": "", "city": "Larkspur", "zip_code": "94939", "country": "US", "state": "CA", "display_address": ["578 Magnolia Ave", "Larkspur, CA 94939"]}, "phone": "+14159248848", "display_phone": "(415) 924-8848", "distance": 17394.75054929117}, {"id": "bpZtF9TjBXRA4L1bwFCr6Q", "alias": "nekter-juice-bar-temporarily-closed-novato", "name": "Nekter Juice Bar - Temporarily Closed", "image_url": "https://s3-media1.fl.yelpcdn.com/bphoto/15fwDxQ6rnA33zJsdfr7HA/o.jpg", "is_closed": false, "url": "https://www.yelp.com/biz/nekter-juice-bar-temporarily-closed-novato?adjust_creative=K_rJo7VUP5JRiFo1Dydvmw&utm_campaign=yelp_api_v3&utm_medium=api_v3_business_search&utm_source=K_rJo7VUP5JRiFo1Dydvmw", "review_count": 112, "categories": [{"alias": "gluten_free", "title": "Gluten-Free"}, {"alias": "juicebars", "title": "Juice Bars & Smoothies"}, {"alias": "acaibowls", "title": "Acai Bowls"}], "rating": 3.0, "coordinates": {"latitude": 38.063899, "longitude": -122.533744}, "transactions": [], "price": "$", "location": {"address1": "5800 Nave Dr", "address2": "Ste L", "address3": "", "city": "Novato", "zip_code": "94949", "country": "US", "state": "CA", "display_address": ["5800 Nave Dr", "Ste L", "Novato, CA 94949"]}, "phone": "+14156122040", "display_phone": "(415) 612-2040", "distance": 4023.163627371137}, {"id": "gB9lSQ1xHxvX3CipT5VNWA", "alias": "el-pollo-loco-san-rafael", "name": "El Pollo Loco", "image_url": "https://s3-media4.fl.yelpcdn.com/bphoto/9Ki-upoIHVDg1B7P5Xxm3A/o.jpg", "is_closed": false, "url": "https://www.yelp.com/biz/el-pollo-loco-san-rafael?adjust_creative=K_rJo7VUP5JRiFo1Dydvmw&utm_campaign=yelp_api_v3&utm_medium=api_v3_business_search&utm_source=K_rJo7VUP5JRiFo1Dydvmw", "review_count": 64, "categories": [{"alias": "mexican", "title": "Mexican"}, {"alias": "hotdogs", "title": "Fast Food"}], "rating": 2.5, "coordinates": {"latitude": 37.9565955913373, "longitude": -122.50717330724}, "transactions": ["delivery"], "price": "$$", "location": {"address1": "910 Andersen Dr", "address2": "", "address3": null, "city": "San Rafael", "zip_code": "94901", "country": "US", "state": "CA", "display_address": ["910 Andersen Dr", "San Rafael, CA 94901"]}, "phone": "+14154859759", "display_phone": "(415) 485-9759", "distance": 15845.838092877468}, {"id": "CB5YC6ANUf__Ra_dE3Z23g", "alias": "mr-pickles-sandwich-shop-san-rafael", "name": "Mr. Pickle's Sandwich Shop", "image_url": "https://s3-media2.fl.yelpcdn.com/bphoto/QwGq1JsG849NKC62oCdjyw/o.jpg", "is_closed": false, "url": "https://www.yelp.com/biz/mr-pickles-sandwich-shop-san-rafael?adjust_creative=K_rJo7VUP5JRiFo1Dydvmw&utm_campaign=yelp_api_v3&utm_medium=api_v3_business_search&utm_source=K_rJo7VUP5JRiFo1Dydvmw", "review_count": 161, "categories": [{"alias": "sandwiches", "title": "Sandwiches"}, {"alias": "salad", "title": "Salad"}, {"alias": "soup", "title": "Soup"}], "rating": 4.0, "coordinates": {"latitude": 37.97331, "longitude": -122.52689}, "transactions": ["delivery", "pickup"], "price": "$", "location": {"address1": "1014 Court St", "address2": "", "address3": "", "city": "San Rafael", "zip_code": "94901", "country": "US", "state": "CA", "display_address": ["1014 Court St", "San Rafael, CA 94901"]}, "phone": "+14153067041", "display_phone": "(415) 306-7041", "distance": 13584.328299459077}, {"id": "mCEMNoqCcBXnMrWiHzDyOA", "alias": "stockhome-petaluma", "name": "Stockhome", "image_url": "https://s3-media1.fl.yelpcdn.com/bphoto/jRCO2llTLt-d5zUUBothPw/o.jpg", "is_closed": false, "url": "https://www.yelp.com/biz/stockhome-petaluma?adjust_creative=K_rJo7VUP5JRiFo1Dydvmw&utm_campaign=yelp_api_v3&utm_medium=api_v3_business_search&utm_source=K_rJo7VUP5JRiFo1Dydvmw", "review_count": 186, "categories": [{"alias": "mediterranean", "title": "Mediterranean"}, {"alias": "scandinavian", "title": "Scandinavian"}], "rating": 4.5, "coordinates": {"latitude": 38.2334818, "longitude": -122.6423829}, "transactions": [], "price": "$$", "location": {"address1": "220 Western Ave", "address2": "", "address3": null, "city": "Petaluma", "zip_code": "94952", "country": "US", "state": "CA", "display_address": ["220 Western Ave", "Petaluma, CA 94952"]}, "phone": "+17079818511", "display_phone": "(707) 981-8511", "distance": 17200.7073832817}, {"id": "Sj3JyGZclachBRUfV8H_mw", "alias": "pupuseria-el-salvador-restaurant-san-rafael", "name": "Pupuseria El Salvador Restaurant", "image_url": "https://s3-media3.fl.yelpcdn.com/bphoto/T49ccegmdIk3DeH4TxPKLQ/o.jpg", "is_closed": false, "url": "https://www.yelp.com/biz/pupuseria-el-salvador-restaurant-san-rafael?adjust_creative=K_rJo7VUP5JRiFo1Dydvmw&utm_campaign=yelp_api_v3&utm_medium=api_v3_business_search&utm_source=K_rJo7VUP5JRiFo1Dydvmw", "review_count": 17, "categories": [{"alias": "salvadoran", "title": "Salvadoran"}], "rating": 3.0, "coordinates": {"latitude": 37.9643363952637, "longitude": -122.508163452148}, "transactions": [], "price": "$", "location": {"address1": "175 Belvedere St", "address2": "", "address3": "", "city": "San Rafael", "zip_code": "94901", "country": "US", "state": "CA", "display_address": ["175 Belvedere St", "San Rafael, CA 94901"]}, "phone": "+14154567147", "display_phone": "(415) 456-7147", "distance": 15030.834269034991}, {"id": "AG6i61NpCJKtvPyjcw1cYw", "alias": "china-express-novato", "name": "China Express", "image_url": "https://s3-media3.fl.yelpcdn.com/bphoto/ClNHnW_63HSqB-N5wrcNGA/o.jpg", "is_closed": false, "url": "https://www.yelp.com/biz/china-express-novato?adjust_creative=K_rJo7VUP5JRiFo1Dydvmw&utm_campaign=yelp_api_v3&utm_medium=api_v3_business_search&utm_source=K_rJo7VUP5JRiFo1Dydvmw", "review_count": 84, "categories": [{"alias": "chinese", "title": "Chinese"}, {"alias": "hotdogs", "title": "Fast Food"}], "rating": 3.5, "coordinates": {"latitude": 38.0981418, "longitude": -122.5703767}, "transactions": ["delivery", "pickup"], "price": "$", "location": {"address1": "1543 S Novato Blvd", "address2": "", "address3": "", "city": "Novato", "zip_code": "94947", "country": "US", "state": "CA", "display_address": ["1543 S Novato Blvd", "Novato, CA 94947"]}, "phone": "+14158999778", "display_phone": "(415) 899-9778", "distance": 1031.9008349777757}, {"id": "TgrFcDdz7lXKxB5xznx09g", "alias": "lucchesis-delicatessen-petaluma", "name": "Lucchesi's Delicatessen", "image_url": "https://s3-media2.fl.yelpcdn.com/bphoto/eacL9A6sFaD3NGJAePgiZQ/o.jpg", "is_closed": false, "url": "https://www.yelp.com/biz/lucchesis-delicatessen-petaluma?adjust_creative=K_rJo7VUP5JRiFo1Dydvmw&utm_campaign=yelp_api_v3&utm_medium=api_v3_business_search&utm_source=K_rJo7VUP5JRiFo1Dydvmw", "review_count": 203, "categories": [{"alias": "delis", "title": "Delis"}, {"alias": "sandwiches", "title": "Sandwiches"}], "rating": 4.0, "coordinates": {"latitude": 38.2484893798828, "longitude": -122.623748779297}, "transactions": [], "price": "$$", "location": {"address1": "301 S McDowell Blvd", "address2": "", "address3": "", "city": "Petaluma", "zip_code": "94954", "country": "US", "state": "CA", "display_address": ["301 S McDowell Blvd", "Petaluma, CA 94954"]}, "phone": "+17077780116", "display_phone": "(707) 778-0116", "distance": 18182.019717504867}, {"id": "ozRZ7W2e5c7IAyyUJY482A", "alias": "the-canton-petaluma", "name": "The Canton", "image_url": "https://s3-media4.fl.yelpcdn.com/bphoto/S9mIW_xVfES2yTrpjKTZ6A/o.jpg", "is_closed": false, "url": "https://www.yelp.com/biz/the-canton-petaluma?adjust_creative=K_rJo7VUP5JRiFo1Dydvmw&utm_campaign=yelp_api_v3&utm_medium=api_v3_business_search&utm_source=K_rJo7VUP5JRiFo1Dydvmw", "review_count": 92, "categories": [{"alias": "dimsum", "title": "Dim Sum"}], "rating": 4.0, "coordinates": {"latitude": 38.23603, "longitude": -122.62261}, "transactions": [], "price": "$$", "location": {"address1": "951 Lakeville St", "address2": "", "address3": "", "city": "Petaluma", "zip_code": "94952", "country": "US", "state": "CA", "display_address": ["951 Lakeville St", "Petaluma, CA 94952"]}, "phone": "+17077788000", "display_phone": "(707) 778-8000", "distance": 16844.85483908163}, {"id": "3IbfdncbWoIEaVYYgaVN3g", "alias": "beercraft-novato-2", "name": "BeerCraft", "image_url": "https://s3-media1.fl.yelpcdn.com/bphoto/Kd_NLK2078o2j8xhK35I5Q/o.jpg", "is_closed": false, "url": "https://www.yelp.com/biz/beercraft-novato-2?adjust_creative=K_rJo7VUP5JRiFo1Dydvmw&utm_campaign=yelp_api_v3&utm_medium=api_v3_business_search&utm_source=K_rJo7VUP5JRiFo1Dydvmw", "review_count": 49, "categories": [{"alias": "beer_and_wine", "title": "Beer, Wine & Spirits"}], "rating": 4.5, "coordinates": {"latitude": 38.10828, "longitude": -122.56948}, "transactions": [], "price": "$$", "location": {"address1": "7388 Redwood Blvd", "address2": "", "address3": null, "city": "Novato", "zip_code": "94945", "country": "US", "state": "CA", "display_address": ["7388 Redwood Blvd", "Novato, CA 94945"]}, "phone": "+14158955402", "display_phone": "(415) 895-5402", "distance": 1884.2173863112641}, {"id": "RKx2tJonpDdeFSOk2c1evQ", "alias": "sonoma-taco-shop-san-rafael", "name": "Sonoma Taco Shop", "image_url": "https://s3-media1.fl.yelpcdn.com/bphoto/FTmZUGOVQxEs3WolRLGo5Q/o.jpg", "is_closed": false, "url": "https://www.yelp.com/biz/sonoma-taco-shop-san-rafael?adjust_creative=K_rJo7VUP5JRiFo1Dydvmw&utm_campaign=yelp_api_v3&utm_medium=api_v3_business_search&utm_source=K_rJo7VUP5JRiFo1Dydvmw", "review_count": 214, "categories": [{"alias": "mexican", "title": "Mexican"}], "rating": 3.5, "coordinates": {"latitude": 38.0081819137, "longitude": -122.547165863}, "transactions": ["delivery"], "price": "$$", "location": {"address1": "210 Northgate One", "address2": "", "address3": "", "city": "San Rafael", "zip_code": "94903", "country": "US", "state": "CA", "display_address": ["210 Northgate One", "San Rafael, CA 94903"]}, "phone": "+14154799066", "display_phone": "(415) 479-9066", "distance": 9452.4820024526}, {"id": "HaA9Wio2uJY-MUEtftYN7Q", "alias": "mas-masa-fairfax", "name": "Mas Masa", "image_url": "https://s3-media3.fl.yelpcdn.com/bphoto/WzcpNeG_TsjG-dB4Xuuq7g/o.jpg", "is_closed": false, "url": "https://www.yelp.com/biz/mas-masa-fairfax?adjust_creative=K_rJo7VUP5JRiFo1Dydvmw&utm_campaign=yelp_api_v3&utm_medium=api_v3_business_search&utm_source=K_rJo7VUP5JRiFo1Dydvmw", "review_count": 196, "categories": [{"alias": "mexican", "title": "Mexican"}, {"alias": "beerbar", "title": "Beer Bar"}, {"alias": "wine_bars", "title": "Wine Bars"}], "rating": 4.0, "coordinates": {"latitude": 37.986368, "longitude": -122.588945}, "transactions": ["delivery"], "price": "$$", "location": {"address1": "31 Bolinas Rd", "address2": null, "address3": "", "city": "Fairfax", "zip_code": "94930", "country": "US", "state": "CA", "display_address": ["31 Bolinas Rd", "Fairfax, CA 94930"]}, "phone": "+14155295444", "display_phone": "(415) 529-5444", "distance": 12019.255976556426}, {"id": "v0LF6G1fG-lU4pgo210QQQ", "alias": "panchitos-restaurant-san-rafael", "name": "Panchitos Restaurant", "image_url": "https://s3-media3.fl.yelpcdn.com/bphoto/K_AcMceOmp8rSLVVBme1fg/o.jpg", "is_closed": false, "url": "https://www.yelp.com/biz/panchitos-restaurant-san-rafael?adjust_creative=K_rJo7VUP5JRiFo1Dydvmw&utm_campaign=yelp_api_v3&utm_medium=api_v3_business_search&utm_source=K_rJo7VUP5JRiFo1Dydvmw", "review_count": 135, "categories": [{"alias": "mexican", "title": "Mexican"}], "rating": 4.0, "coordinates": {"latitude": 38.01408, "longitude": -122.56047}, "transactions": ["delivery"], "price": "$$", "location": {"address1": "667 Del Ganado Rd", "address2": "", "address3": "", "city": "San Rafael", "zip_code": "94903", "country": "US", "state": "CA", "display_address": ["667 Del Ganado Rd", "San Rafael, CA 94903"]}, "phone": "+14154726766", "display_phone": "(415) 472-6766", "distance": 8717.22670165274}, {"id": "iV_uClZx8kSnPetIJUpYPg", "alias": "chao-praya-novato", "name": "Chao Praya", "image_url": "https://s3-media4.fl.yelpcdn.com/bphoto/OrjUdE6Q4Sc3GJYt8sJFVQ/o.jpg", "is_closed": false, "url": "https://www.yelp.com/biz/chao-praya-novato?adjust_creative=K_rJo7VUP5JRiFo1Dydvmw&utm_campaign=yelp_api_v3&utm_medium=api_v3_business_search&utm_source=K_rJo7VUP5JRiFo1Dydvmw", "review_count": 222, "categories": [{"alias": "thai", "title": "Thai"}], "rating": 4.0, "coordinates": {"latitude": 38.098928, "longitude": -122.571432}, "transactions": ["delivery"], "price": "$$", "location": {"address1": "1553 S Novato Blvd", "address2": "Ste G", "address3": "", "city": "Novato", "zip_code": "94947", "country": "US", "state": "CA", "display_address": ["1553 S Novato Blvd", "Ste G", "Novato, CA 94947"]}, "phone": "+14158929303", "display_phone": "(415) 892-9303", "distance": 1094.4257042347003}, {"id": "oujvW9B3mToLP2iQJyhXGg", "alias": "golden-cream-donuts-no-2-novato", "name": "Golden Cream Donuts No 2", "image_url": "https://s3-media1.fl.yelpcdn.com/bphoto/jtRXT-LW5Z_4S2YlOV0Nlg/o.jpg", "is_closed": false, "url": "https://www.yelp.com/biz/golden-cream-donuts-no-2-novato?adjust_creative=K_rJo7VUP5JRiFo1Dydvmw&utm_campaign=yelp_api_v3&utm_medium=api_v3_business_search&utm_source=K_rJo7VUP5JRiFo1Dydvmw", "review_count": 20, "categories": [{"alias": "donuts", "title": "Donuts"}], "rating": 4.0, "coordinates": {"latitude": 38.065117, "longitude": -122.539016}, "transactions": [], "price": "$", "location": {"address1": "508 Alameda Del Prado", "address2": "", "address3": "", "city": "Novato", "zip_code": "94949", "country": "US", "state": "CA", "display_address": ["508 Alameda Del Prado", "Novato, CA 94949"]}, "phone": "+14158836388", "display_phone": "(415) 883-6388", "distance": 3642.602396944988}, {"id": "v1wfsE1UKffBcnvKNBFm3w", "alias": "arizmendi-bakery-san-rafael", "name": "Arizmendi Bakery", "image_url": "https://s3-media1.fl.yelpcdn.com/bphoto/UWti1859RjiqOCi891MWnQ/o.jpg", "is_closed": false, "url": "https://www.yelp.com/biz/arizmendi-bakery-san-rafael?adjust_creative=K_rJo7VUP5JRiFo1Dydvmw&utm_campaign=yelp_api_v3&utm_medium=api_v3_business_search&utm_source=K_rJo7VUP5JRiFo1Dydvmw", "review_count": 272, "categories": [{"alias": "bakeries", "title": "Bakeries"}, {"alias": "pizza", "title": "Pizza"}, {"alias": "sandwiches", "title": "Sandwiches"}], "rating": 4.5, "coordinates": {"latitude": 37.973151555215, "longitude": -122.52686925343}, "transactions": ["delivery"], "price": "$$", "location": {"address1": "1002 4th St", "address2": "", "address3": "Rafael Town Center Plz", "city": "San Rafael", "zip_code": "94901", "country": "US", "state": "CA", "display_address": ["1002 4th St", "Rafael Town Center Plz", "San Rafael, CA 94901"]}, "phone": "+14154564093", "display_phone": "(415) 456-4093", "distance": 13611.179654336725}, {"id": "riL9SoXVl1RoUIpupFQ9CA", "alias": "casa-manana-restaurant-san-rafael", "name": "Casa Manana Restaurant", "image_url": "https://s3-media2.fl.yelpcdn.com/bphoto/5Ju_138nxJr7Gs2Fsx4RAQ/o.jpg", "is_closed": false, "url": "https://www.yelp.com/biz/casa-manana-restaurant-san-rafael?adjust_creative=K_rJo7VUP5JRiFo1Dydvmw&utm_campaign=yelp_api_v3&utm_medium=api_v3_business_search&utm_source=K_rJo7VUP5JRiFo1Dydvmw", "review_count": 243, "categories": [{"alias": "mexican", "title": "Mexican"}, {"alias": "salvadoran", "title": "Salvadoran"}], "rating": 4.0, "coordinates": {"latitude": 37.9707879, "longitude": -122.5327064}, "transactions": ["delivery"], "price": "$$", "location": {"address1": "711 D St", "address2": "", "address3": "", "city": "San Rafael", "zip_code": "94901", "country": "US", "state": "CA", "display_address": ["711 D St", "San Rafael, CA 94901"]}, "phone": "+14154567345", "display_phone": "(415) 456-7345", "distance": 13762.559023628733}, {"id": "L_Q-qv8IAmdZQsIO53IzDQ", "alias": "safeway-novato", "name": "Safeway", "image_url": "https://s3-media2.fl.yelpcdn.com/bphoto/KUhQAA7O73LvVYLQc7v5Tg/o.jpg", "is_closed": false, "url": "https://www.yelp.com/biz/safeway-novato?adjust_creative=K_rJo7VUP5JRiFo1Dydvmw&utm_campaign=yelp_api_v3&utm_medium=api_v3_business_search&utm_source=K_rJo7VUP5JRiFo1Dydvmw", "review_count": 141, "categories": [{"alias": "grocery", "title": "Grocery"}, {"alias": "beer_and_wine", "title": "Beer, Wine & Spirits"}, {"alias": "meats", "title": "Meat Shops"}], "rating": 2.5, "coordinates": {"latitude": 38.0623445483058, "longitude": -122.532002166451}, "transactions": [], "price": "$$", "location": {"address1": "5720 Nave Dr", "address2": "", "address3": "", "city": "Novato", "zip_code": "94949", "country": "US", "state": "CA", "display_address": ["5720 Nave Dr", "Novato, CA 94949"]}, "phone": "+14158819256", "display_phone": "(415) 881-9256", "distance": 4253.294631001541}, {"id": "5sKbrUgrgTo5kDLyarvpMA", "alias": "la-carreta-novato-novato-2", "name": "La Carreta - Novato", "image_url": "https://s3-media1.fl.yelpcdn.com/bphoto/tLCt5E6MFabZBmBOjWbakA/o.jpg", "is_closed": false, "url": "https://www.yelp.com/biz/la-carreta-novato-novato-2?adjust_creative=K_rJo7VUP5JRiFo1Dydvmw&utm_campaign=yelp_api_v3&utm_medium=api_v3_business_search&utm_source=K_rJo7VUP5JRiFo1Dydvmw", "review_count": 57, "categories": [{"alias": "mexican", "title": "Mexican"}, {"alias": "bars", "title": "Bars"}, {"alias": "seafood", "title": "Seafood"}], "rating": 3.0, "coordinates": {"latitude": 38.1108322, "longitude": -122.5926374}, "transactions": ["delivery"], "price": "$$", "location": {"address1": "2033 Novato Blvd", "address2": "", "address3": null, "city": "Novato", "zip_code": "94947", "country": "US", "state": "CA", "display_address": ["2033 Novato Blvd", "Novato, CA 94947"]}, "phone": "+14154936875", "display_phone": "(415) 493-6875", "distance": 3369.2192481612606}, {"id": "pwbI5QcgyVo4WY8aXWrJIA", "alias": "mountain-mikes-pizza-novato", "name": "Mountain Mike's Pizza", "image_url": "https://s3-media4.fl.yelpcdn.com/bphoto/acANHa9yTKRkOLtcgi3NWg/o.jpg", "is_closed": false, "url": "https://www.yelp.com/biz/mountain-mikes-pizza-novato?adjust_creative=K_rJo7VUP5JRiFo1Dydvmw&utm_campaign=yelp_api_v3&utm_medium=api_v3_business_search&utm_source=K_rJo7VUP5JRiFo1Dydvmw", "review_count": 110, "categories": [{"alias": "pizza", "title": "Pizza"}, {"alias": "sportsbars", "title": "Sports Bars"}, {"alias": "venues", "title": "Venues & Event Spaces"}], "rating": 3.5, "coordinates": {"latitude": 38.100115, "longitude": -122.571784}, "transactions": ["delivery", "pickup"], "price": "$$", "location": {"address1": "1561 S Novato Blvd", "address2": "", "address3": "", "city": "Novato", "zip_code": "94947", "country": "US", "state": "CA", "display_address": ["1561 S Novato Blvd", "Novato, CA 94947"]}, "phone": "+14158988800", "display_phone": "(415) 898-8800", "distance": 1207.8246119428416}, {"id": "Pk-GFGTITNOl6zyulg4X4A", "alias": "lagunitas-groceries-and-delicatessen-lagunitas", "name": "Lagunitas Groceries & Delicatessen", "image_url": "https://s3-media2.fl.yelpcdn.com/bphoto/Msm6YB44BfDQXWAAdlIOeg/o.jpg", "is_closed": false, "url": "https://www.yelp.com/biz/lagunitas-groceries-and-delicatessen-lagunitas?adjust_creative=K_rJo7VUP5JRiFo1Dydvmw&utm_campaign=yelp_api_v3&utm_medium=api_v3_business_search&utm_source=K_rJo7VUP5JRiFo1Dydvmw", "review_count": 58, "categories": [{"alias": "delis", "title": "Delis"}], "rating": 4.5, "coordinates": {"latitude": 38.012285605073, "longitude": -122.701700180769}, "transactions": [], "price": "$", "location": {"address1": "7290 Sir Francis Drake Blvd", "address2": "", "address3": "", "city": "Lagunitas", "zip_code": "94938", "country": "US", "state": "CA", "display_address": ["7290 Sir Francis Drake Blvd", "Lagunitas, CA 94938"]}, "phone": "+14154884844", "display_phone": "(415) 488-4844", "distance": 15115.303492991341}, {"id": "qX4-wzlOAYg3hQoyaY6uBg", "alias": "pings-chinese-cuisine-san-rafael", "name": "Ping's Chinese Cuisine", "image_url": "https://s3-media1.fl.yelpcdn.com/bphoto/JgZE77Kf7K8-tG4f23UY-A/o.jpg", "is_closed": false, "url": "https://www.yelp.com/biz/pings-chinese-cuisine-san-rafael?adjust_creative=K_rJo7VUP5JRiFo1Dydvmw&utm_campaign=yelp_api_v3&utm_medium=api_v3_business_search&utm_source=K_rJo7VUP5JRiFo1Dydvmw", "review_count": 235, "categories": [{"alias": "chinese", "title": "Chinese"}], "rating": 3.5, "coordinates": {"latitude": 38.0078594435156, "longitude": -122.547673986719}, "transactions": ["delivery", "pickup"], "price": "$$", "location": {"address1": "248 Northgate One", "address2": "", "address3": "", "city": "San Rafael", "zip_code": "94903", "country": "US", "state": "CA", "display_address": ["248 Northgate One", "San Rafael, CA 94903"]}, "phone": "+14154928808", "display_phone": "(415) 492-8808", "distance": 9481.964666181719}, {"id": "SArb8iWZ5DzPHVTq-QJwRA", "alias": "los-moles-hecho-en-casa-san-rafael-4", "name": "Los Moles Hecho En Casa", "image_url": "https://s3-media1.fl.yelpcdn.com/bphoto/4YlaeC9E_GEz1vQJXOXdRg/o.jpg", "is_closed": false, "url": "https://www.yelp.com/biz/los-moles-hecho-en-casa-san-rafael-4?adjust_creative=K_rJo7VUP5JRiFo1Dydvmw&utm_campaign=yelp_api_v3&utm_medium=api_v3_business_search&utm_source=K_rJo7VUP5JRiFo1Dydvmw", "review_count": 484, "categories": [{"alias": "mexican", "title": "Mexican"}, {"alias": "buffets", "title": "Buffets"}], "rating": 4.5, "coordinates": {"latitude": 37.97212, "longitude": -122.52367}, "transactions": ["delivery", "pickup"], "price": "$$", "location": {"address1": "912 Lincoln Ave", "address2": "", "address3": "", "city": "San Rafael", "zip_code": "94901", "country": "US", "state": "CA", "display_address": ["912 Lincoln Ave", "San Rafael, CA 94901"]}, "phone": "+14154535850", "display_phone": "(415) 453-5850", "distance": 13787.089608558179}, {"id": "6RuwsFTVSbKsMlzY-YJGxw", "alias": "china-village-novato", "name": "China Village", "image_url": "https://s3-media2.fl.yelpcdn.com/bphoto/imqHsB67Oo8-YiyLwM0-IQ/o.jpg", "is_closed": false, "url": "https://www.yelp.com/biz/china-village-novato?adjust_creative=K_rJo7VUP5JRiFo1Dydvmw&utm_campaign=yelp_api_v3&utm_medium=api_v3_business_search&utm_source=K_rJo7VUP5JRiFo1Dydvmw", "review_count": 95, "categories": [{"alias": "chinese", "title": "Chinese"}], "rating": 3.5, "coordinates": {"latitude": 38.121942, "longitude": -122.6040644}, "transactions": ["delivery", "pickup"], "price": "$", "location": {"address1": "107 San Marin Dr", "address2": "", "address3": "", "city": "Novato", "zip_code": "94945", "country": "US", "state": "CA", "display_address": ["107 San Marin Dr", "Novato, CA 94945"]}, "phone": "+14158923823", "display_phone": "(415) 892-3823", "distance": 4977.564003237394}, {"id": "ZFgeLjOBzr4FT6VdEgfOAg", "alias": "cascabel-san-rafael", "name": "Cascabel", "image_url": "https://s3-media2.fl.yelpcdn.com/bphoto/AN5Ah3cQIHq_QU3BnsPY9A/o.jpg", "is_closed": false, "url": "https://www.yelp.com/biz/cascabel-san-rafael?adjust_creative=K_rJo7VUP5JRiFo1Dydvmw&utm_campaign=yelp_api_v3&utm_medium=api_v3_business_search&utm_source=K_rJo7VUP5JRiFo1Dydvmw", "review_count": 120, "categories": [{"alias": "bars", "title": "Bars"}, {"alias": "mexican", "title": "Mexican"}], "rating": 4.5, "coordinates": {"latitude": 37.9734124043779, "longitude": -122.529295593412}, "transactions": ["delivery", "pickup"], "price": "$$", "location": {"address1": "1131 4th St", "address2": "", "address3": null, "city": "San Rafael", "zip_code": "94901", "country": "US", "state": "CA", "display_address": ["1131 4th St", "San Rafael, CA 94901"]}, "phone": "+14157857653", "display_phone": "(415) 785-7653", "distance": 13536.232729416957}, {"id": "qvpOeVU6qL8zfxTRl3nDjg", "alias": "old-chicago-pizza-petaluma", "name": "Old Chicago Pizza", "image_url": "https://s3-media2.fl.yelpcdn.com/bphoto/iUn9q7x9FNnbdVsaOHRtbw/o.jpg", "is_closed": false, "url": "https://www.yelp.com/biz/old-chicago-pizza-petaluma?adjust_creative=K_rJo7VUP5JRiFo1Dydvmw&utm_campaign=yelp_api_v3&utm_medium=api_v3_business_search&utm_source=K_rJo7VUP5JRiFo1Dydvmw", "review_count": 725, "categories": [{"alias": "pizza", "title": "Pizza"}, {"alias": "wine_bars", "title": "Wine Bars"}, {"alias": "beerbar", "title": "Beer Bar"}], "rating": 4.0, "coordinates": {"latitude": 38.2336231671247, "longitude": -122.640311676761}, "transactions": [], "price": "$$", "location": {"address1": "41 Petaluma Blvd N", "address2": "", "address3": "", "city": "Petaluma", "zip_code": "94952", "country": "US", "state": "CA", "display_address": ["41 Petaluma Blvd N", "Petaluma, CA 94952"]}, "phone": "+17077633897", "display_phone": "(707) 763-3897", "distance": 17130.135872039176}, {"id": "lq-juVkG7W3_ODWaots9gw", "alias": "panda-express-novato", "name": "Panda Express", "image_url": "https://s3-media4.fl.yelpcdn.com/bphoto/CJEbutekG4lZdGeeuK6OHA/o.jpg", "is_closed": false, "url": "https://www.yelp.com/biz/panda-express-novato?adjust_creative=K_rJo7VUP5JRiFo1Dydvmw&utm_campaign=yelp_api_v3&utm_medium=api_v3_business_search&utm_source=K_rJo7VUP5JRiFo1Dydvmw", "review_count": 57, "categories": [{"alias": "chinese", "title": "Chinese"}, {"alias": "hotdogs", "title": "Fast Food"}], "rating": 2.0, "coordinates": {"latitude": 38.104, "longitude": -122.572}, "transactions": [], "price": "$", "location": {"address1": "975 Diablo Ave", "address2": "", "address3": "", "city": "Novato", "zip_code": "94947", "country": "US", "state": "CA", "display_address": ["975 Diablo Ave", "Novato, CA 94947"]}, "phone": "+14158922163", "display_phone": "(415) 892-2163", "distance": 1556.1580345580503}, {"id": "ilwOI6Q6LrfBd9V1xvtalg", "alias": "baan-thai-cuisine-san-anselmo", "name": "Baan Thai Cuisine", "image_url": "https://s3-media4.fl.yelpcdn.com/bphoto/0ZVJ5DKQEP0bNuwVg0eG2Q/o.jpg", "is_closed": false, "url": "https://www.yelp.com/biz/baan-thai-cuisine-san-anselmo?adjust_creative=K_rJo7VUP5JRiFo1Dydvmw&utm_campaign=yelp_api_v3&utm_medium=api_v3_business_search&utm_source=K_rJo7VUP5JRiFo1Dydvmw", "review_count": 161, "categories": [{"alias": "thai", "title": "Thai"}, {"alias": "salad", "title": "Salad"}, {"alias": "beerbar", "title": "Beer Bar"}], "rating": 4.5, "coordinates": {"latitude": 37.9764596, "longitude": -122.5634291}, "transactions": ["delivery", "pickup"], "price": "$$", "location": {"address1": "726 San Anselmo Ave", "address2": "", "address3": "", "city": "San Anselmo", "zip_code": "94960", "country": "US", "state": "CA", "display_address": ["726 San Anselmo Ave", "San Anselmo, CA 94960"]}, "phone": "+14154579470", "display_phone": "(415) 457-9470", "distance": 12889.431819192847}, {"id": "7x3KQwIQV1g_yS-oPSrDBQ", "alias": "revel-and-roost-brick-oven-kitchen-san-rafael", "name": "Revel & Roost Brick Oven Kitchen", "image_url": "https://s3-media1.fl.yelpcdn.com/bphoto/An3ssCv9zx-TrOqT_95xGg/o.jpg", "is_closed": false, "url": "https://www.yelp.com/biz/revel-and-roost-brick-oven-kitchen-san-rafael?adjust_creative=K_rJo7VUP5JRiFo1Dydvmw&utm_campaign=yelp_api_v3&utm_medium=api_v3_business_search&utm_source=K_rJo7VUP5JRiFo1Dydvmw", "review_count": 59, "categories": [{"alias": "newamerican", "title": "American (New)"}, {"alias": "seafood", "title": "Seafood"}, {"alias": "cocktailbars", "title": "Cocktail Bars"}], "rating": 4.0, "coordinates": {"latitude": 37.97244, "longitude": -122.52984}, "transactions": ["delivery", "pickup"], "price": "$$", "location": {"address1": "901 B St", "address2": null, "address3": null, "city": "San Rafael", "zip_code": "94901", "country": "US", "state": "CA", "display_address": ["901 B St", "San Rafael, CA 94901"]}, "phone": "+14158709946", "display_phone": "(415) 870-9946", "distance": 13634.892881307764}, {"id": "gT4WJe1KvOKns6fRfSuedA", "alias": "trattoria-ghiringhelli-grill-and-bar-novato", "name": "Trattoria Ghiringhelli Grill & Bar", "image_url": "https://s3-media1.fl.yelpcdn.com/bphoto/ztNwNj6Ln0cPyEA7KePBww/o.jpg", "is_closed": false, "url": "https://www.yelp.com/biz/trattoria-ghiringhelli-grill-and-bar-novato?adjust_creative=K_rJo7VUP5JRiFo1Dydvmw&utm_campaign=yelp_api_v3&utm_medium=api_v3_business_search&utm_source=K_rJo7VUP5JRiFo1Dydvmw", "review_count": 264, "categories": [{"alias": "italian", "title": "Italian"}, {"alias": "burgers", "title": "Burgers"}, {"alias": "sportsbars", "title": "Sports Bars"}], "rating": 3.5, "coordinates": {"latitude": 38.097742, "longitude": -122.571405}, "transactions": ["delivery", "pickup"], "price": "$$", "location": {"address1": "1535 S Novato Blvd", "address2": "", "address3": "", "city": "Novato", "zip_code": "94947", "country": "US", "state": "CA", "display_address": ["1535 S Novato Blvd", "Novato, CA 94947"]}, "phone": "+14158784977", "display_phone": "(415) 878-4977", "distance": 1009.483434947944}, {"id": "ajI2DJbq4DUwA7Lk81Y7Aw", "alias": "il-davide-san-rafael-3", "name": "Il Davide", "image_url": "https://s3-media3.fl.yelpcdn.com/bphoto/3ZEQmRa7ijxRpafobHLn9w/o.jpg", "is_closed": false, "url": "https://www.yelp.com/biz/il-davide-san-rafael-3?adjust_creative=K_rJo7VUP5JRiFo1Dydvmw&utm_campaign=yelp_api_v3&utm_medium=api_v3_business_search&utm_source=K_rJo7VUP5JRiFo1Dydvmw", "review_count": 778, "categories": [{"alias": "italian", "title": "Italian"}, {"alias": "wine_bars", "title": "Wine Bars"}, {"alias": "venues", "title": "Venues & Event Spaces"}], "rating": 4.5, "coordinates": {"latitude": 37.9726007426891, "longitude": -122.528520886806}, "transactions": ["delivery", "restaurant_reservation"], "price": "$$", "location": {"address1": "901 A St", "address2": "", "address3": "", "city": "San Rafael", "zip_code": "94901", "country": "US", "state": "CA", "display_address": ["901 A St", "San Rafael, CA 94901"]}, "phone": "+14154548080", "display_phone": "(415) 454-8080", "distance": 13638.91659263534}, {"id": "HA-qshlhowWDx4O4ND_NSQ", "alias": "sake107-petaluma", "name": "Sake107", "image_url": "https://s3-media3.fl.yelpcdn.com/bphoto/LyxrcjyZTerq_rBp6x3v3g/o.jpg", "is_closed": false, "url": "https://www.yelp.com/biz/sake107-petaluma?adjust_creative=K_rJo7VUP5JRiFo1Dydvmw&utm_campaign=yelp_api_v3&utm_medium=api_v3_business_search&utm_source=K_rJo7VUP5JRiFo1Dydvmw", "review_count": 168, "categories": [{"alias": "japanese", "title": "Japanese"}, {"alias": "sushi", "title": "Sushi Bars"}], "rating": 5.0, "coordinates": {"latitude": 38.23426, "longitude": -122.64066}, "transactions": [], "price": "$$$", "location": {"address1": "107 Petaluma Blvd N", "address2": null, "address3": "", "city": "Petaluma", "zip_code": "94952", "country": "US", "state": "CA", "display_address": ["107 Petaluma Blvd N", "Petaluma, CA 94952"]}, "phone": "+17072417580", "display_phone": "(707) 241-7580", "distance": 17208.43614593989}, {"id": "DFUCvyY5P6PXXilmNcAaYw", "alias": "el-lucerito-san-rafael-2", "name": "El Lucerito", "image_url": "https://s3-media1.fl.yelpcdn.com/bphoto/l1wutA0GA08qcAS_QhBOZg/o.jpg", "is_closed": false, "url": "https://www.yelp.com/biz/el-lucerito-san-rafael-2?adjust_creative=K_rJo7VUP5JRiFo1Dydvmw&utm_campaign=yelp_api_v3&utm_medium=api_v3_business_search&utm_source=K_rJo7VUP5JRiFo1Dydvmw", "review_count": 125, "categories": [{"alias": "latin", "title": "Latin American"}, {"alias": "mexican", "title": "Mexican"}], "rating": 4.5, "coordinates": {"latitude": 37.9684583759947, "longitude": -122.523791347856}, "transactions": ["delivery"], "price": "$$", "location": {"address1": "767 Lincoln Ave", "address2": "", "address3": "", "city": "San Rafael", "zip_code": "94901", "country": "US", "state": "CA", "display_address": ["767 Lincoln Ave", "San Rafael, CA 94901"]}, "phone": "+14154574910", "display_phone": "(415) 457-4910", "distance": 14181.324243727657}, {"id": "rtUlhEiM7oxTxsfOfhg0lQ", "alias": "the-mayflower-pub-san-rafael", "name": "The Mayflower Pub", "image_url": "https://s3-media3.fl.yelpcdn.com/bphoto/nKTUqNzpVahpIRNOX2Bgag/o.jpg", "is_closed": false, "url": "https://www.yelp.com/biz/the-mayflower-pub-san-rafael?adjust_creative=K_rJo7VUP5JRiFo1Dydvmw&utm_campaign=yelp_api_v3&utm_medium=api_v3_business_search&utm_source=K_rJo7VUP5JRiFo1Dydvmw", "review_count": 235, "categories": [{"alias": "british", "title": "British"}, {"alias": "pubs", "title": "Pubs"}], "rating": 4.0, "coordinates": {"latitude": 37.9737, "longitude": -122.53486}, "transactions": ["delivery"], "price": "$$", "location": {"address1": "1533 4th St", "address2": "", "address3": "", "city": "San Rafael", "zip_code": "94901", "country": "US", "state": "CA", "display_address": ["1533 4th St", "San Rafael, CA 94901"]}, "phone": "+14154561011", "display_phone": "(415) 456-1011", "distance": 13412.086303263597}, {"id": "wmzQxwYj1D5zI_CArNHnmw", "alias": "ohana-acai-cafe-corte-madera", "name": "Ohana Acai Cafe'", "image_url": "https://s3-media3.fl.yelpcdn.com/bphoto/-YpkClzSoC-OI9Q7t9lDBQ/o.jpg", "is_closed": false, "url": "https://www.yelp.com/biz/ohana-acai-cafe-corte-madera?adjust_creative=K_rJo7VUP5JRiFo1Dydvmw&utm_campaign=yelp_api_v3&utm_medium=api_v3_business_search&utm_source=K_rJo7VUP5JRiFo1Dydvmw", "review_count": 75, "categories": [{"alias": "acaibowls", "title": "Acai Bowls"}, {"alias": "juicebars", "title": "Juice Bars & Smoothies"}, {"alias": "coffee", "title": "Coffee & Tea"}], "rating": 4.0, "coordinates": {"latitude": 37.933383716731, "longitude": -122.517708353698}, "transactions": ["delivery"], "price": "$$", "location": {"address1": "47 Tamal Vista Blvd", "address2": "", "address3": null, "city": "Corte Madera", "zip_code": "94925", "country": "US", "state": "CA", "display_address": ["47 Tamal Vista Blvd", "Corte Madera, CA 94925"]}, "phone": "+14159273330", "display_phone": "(415) 927-3330", "distance": 18101.492458779056}, {"id": "urJaKqJLC7lIKNeTioIrJA", "alias": "bjs-restaurant-and-brewhouse-san-rafael", "name": "BJ's Restaurant & Brewhouse", "image_url": "https://s3-media1.fl.yelpcdn.com/bphoto/2mIWBs0QBL9VFtv8yG4Vcw/o.jpg", "is_closed": false, "url": "https://www.yelp.com/biz/bjs-restaurant-and-brewhouse-san-rafael?adjust_creative=K_rJo7VUP5JRiFo1Dydvmw&utm_campaign=yelp_api_v3&utm_medium=api_v3_business_search&utm_source=K_rJo7VUP5JRiFo1Dydvmw", "review_count": 655, "categories": [{"alias": "newamerican", "title": "American (New)"}, {"alias": "breweries", "title": "Breweries"}], "rating": 2.5, "coordinates": {"latitude": 38.004977, "longitude": -122.544517}, "transactions": ["delivery"], "price": "$$", "location": {"address1": "5800 Northgate Mall", "address2": "Ste 159", "address3": "", "city": "San Rafael", "zip_code": "94903", "country": "US", "state": "CA", "display_address": ["5800 Northgate Mall", "Ste 159", "San Rafael, CA 94903"]}, "phone": "+14157556250", "display_phone": "(415) 755-6250", "distance": 9839.176936127897}, {"id": "QH-buVLhXi_p9y8MXe91Pw", "alias": "rossis-black-point-station-novato", "name": "Rossi's Black Point Station", "image_url": "https://s3-media1.fl.yelpcdn.com/bphoto/MErKBsBWr5sE3dUWp54MSg/o.jpg", "is_closed": false, "url": "https://www.yelp.com/biz/rossis-black-point-station-novato?adjust_creative=K_rJo7VUP5JRiFo1Dydvmw&utm_campaign=yelp_api_v3&utm_medium=api_v3_business_search&utm_source=K_rJo7VUP5JRiFo1Dydvmw", "review_count": 14, "categories": [{"alias": "delis", "title": "Delis"}], "rating": 3.0, "coordinates": {"latitude": 38.10848, "longitude": -122.50745}, "transactions": [], "price": "$", "location": {"address1": "5 Harbor Dr", "address2": "", "address3": "", "city": "Novato", "zip_code": "94945", "country": "US", "state": "CA", "display_address": ["5 Harbor Dr", "Novato, CA 94945"]}, "phone": "+14158977746", "display_phone": "(415) 897-7746", "distance": 5106.888781249187}, {"id": "AviCUFqngtePvlimkjeV8Q", "alias": "java-hub-cafe-san-anselmo", "name": "Java Hub Cafe", "image_url": "https://s3-media3.fl.yelpcdn.com/bphoto/0uup0zepVJS3I1ArhL-maQ/o.jpg", "is_closed": false, "url": "https://www.yelp.com/biz/java-hub-cafe-san-anselmo?adjust_creative=K_rJo7VUP5JRiFo1Dydvmw&utm_campaign=yelp_api_v3&utm_medium=api_v3_business_search&utm_source=K_rJo7VUP5JRiFo1Dydvmw", "review_count": 46, "categories": [{"alias": "coffee", "title": "Coffee & Tea"}, {"alias": "korean", "title": "Korean"}, {"alias": "juicebars", "title": "Juice Bars & Smoothies"}], "rating": 4.0, "coordinates": {"latitude": 37.97614, "longitude": -122.55963}, "transactions": ["delivery"], "price": "$", "location": {"address1": "60 Greenfield Ave", "address2": "", "address3": "", "city": "San Anselmo", "zip_code": "94960", "country": "US", "state": "CA", "display_address": ["60 Greenfield Ave", "San Anselmo, CA 94960"]}, "phone": "+14154514928", "display_phone": "(415) 451-4928", "distance": 12924.464598765173}, {"id": "LWX40P88yUmFmWBAnSN4qA", "alias": "two-bird-caf\u00e9-at-the-valley-inn-san-geronimo-4", "name": "Two Bird Caf\u00e9 At the Valley Inn", "image_url": "https://s3-media3.fl.yelpcdn.com/bphoto/DDBD1ildyIy22DIbbAMqWA/o.jpg", "is_closed": false, "url": "https://www.yelp.com/biz/two-bird-caf%C3%A9-at-the-valley-inn-san-geronimo-4?adjust_creative=K_rJo7VUP5JRiFo1Dydvmw&utm_campaign=yelp_api_v3&utm_medium=api_v3_business_search&utm_source=K_rJo7VUP5JRiFo1Dydvmw", "review_count": 163, "categories": [{"alias": "newamerican", "title": "American (New)"}, {"alias": "breakfast_brunch", "title": "Breakfast & Brunch"}], "rating": 4.0, "coordinates": {"latitude": 38.01413, "longitude": -122.66748}, "transactions": [], "price": "$$", "location": {"address1": "625 San Geronimo Valley Dr", "address2": "", "address3": "", "city": "San Geronimo", "zip_code": "94963", "country": "US", "state": "CA", "display_address": ["625 San Geronimo Valley Dr", "San Geronimo, CA 94963"]}, "phone": "+14154880105", "display_phone": "(415) 488-0105", "distance": 12683.130558945226}], "total": 1100, "region": {"center": {"longitude": -122.56210327148438, "latitude": 38.092372469871066}}}