{"businesses": [{"id": "R6U5-_0N6HE58NuNnuZDrw", "alias": "blue-barn-gourmet-novato", "name": "Blue Barn Gourmet", "image_url": "https://s3-media1.fl.yelpcdn.com/bphoto/wC82ynFZQs7LPpRCA2CdoA/o.jpg", "is_closed": false, "url": "https://www.yelp.com/biz/blue-barn-gourmet-novato?adjust_creative=K_rJo7VUP5JRiFo1Dydvmw&utm_campaign=yelp_api_v3&utm_medium=api_v3_business_search&utm_source=K_rJo7VUP5JRiFo1Dydvmw", "review_count": 35, "categories": [{"alias": "salad", "title": "Salad"}, {"alias": "sandwiches", "title": "Sandwiches"}], "rating": 4.0, "coordinates": {"latitude": 38.10687, "longitude": -122.56718}, "transactions": [], "location": {"address1": "819 Grant Ave", "address2": null, "address3": "", "city": "Novato", "zip_code": "94945", "country": "US", "state": "CA", "display_address": ["819 Grant Ave", "Novato, CA 94945"]}, "phone": "+14158956577", "display_phone": "(415) 895-6577", "distance": 1671.8068111156774}, {"id": "9gPayefpYNpoibu_Q7JD7g", "alias": "le-col-rouge-novato", "name": "Le Col Rouge", "image_url": "https://s3-media3.fl.yelpcdn.com/bphoto/lsNwpefCgpVukq0C6JEp9A/o.jpg", "is_closed": false, "url": "https://www.yelp.com/biz/le-col-rouge-novato?adjust_creative=K_rJo7VUP5JRiFo1Dydvmw&utm_campaign=yelp_api_v3&utm_medium=api_v3_business_search&utm_source=K_rJo7VUP5JRiFo1Dydvmw", "review_count": 111, "categories": [{"alias": "southern", "title": "Southern"}, {"alias": "chickenshop", "title": "Chicken Shop"}], "rating": 4.0, "coordinates": {"latitude": 38.09689633, "longitude": -122.57021017}, "transactions": ["delivery"], "price": "$$", "location": {"address1": "1531 S Novato Blvd", "address2": "Ste A", "address3": "", "city": "Novato", "zip_code": "94947", "country": "US", "state": "CA", "display_address": ["1531 S Novato Blvd", "Ste A", "Novato, CA 94947"]}, "phone": "+14158956466", "display_phone": "(415) 895-6466", "distance": 866.2537378119957}, {"id": "H2j4yPKCXCaS4uG-NzlbKg", "alias": "pearl-novato-novato-3", "name": "Pearl Novato", "image_url": "https://s3-media2.fl.yelpcdn.com/bphoto/uQHCtrHOfEUvqr1Jaivdyg/o.jpg", "is_closed": false, "url": "https://www.yelp.com/biz/pearl-novato-novato-3?adjust_creative=K_rJo7VUP5JRiFo1Dydvmw&utm_campaign=yelp_api_v3&utm_medium=api_v3_business_search&utm_source=K_rJo7VUP5JRiFo1Dydvmw", "review_count": 133, "categories": [{"alias": "bubbletea", "title": "Bubble Tea"}, {"alias": "vietnamese", "title": "Vietnamese"}, {"alias": "poke", "title": "Poke"}], "rating": 4.5, "coordinates": {"latitude": 38.10408, "longitude": -122.57183}, "transactions": [], "price": "$$", "location": {"address1": "942 Diablo Ave", "address2": null, "address3": "", "city": "Novato", "zip_code": "94947", "country": "US", "state": "CA", "display_address": ["942 Diablo Ave", "Novato, CA 94947"]}, "phone": "+14157619469", "display_phone": "(415) 761-9469", "distance": 1283.3536394877792}, {"id": "lMSDoF7f_1pcVfzIk5q0dg", "alias": "aurora-ristorante-italiano-novato", "name": "Aurora Ristorante Italiano", "image_url": "https://s3-media3.fl.yelpcdn.com/bphoto/-TZbFjRQqNHhVC5y4qor1Q/o.jpg", "is_closed": false, "url": "https://www.yelp.com/biz/aurora-ristorante-italiano-novato?adjust_creative=K_rJo7VUP5JRiFo1Dydvmw&utm_campaign=yelp_api_v3&utm_medium=api_v3_business_search&utm_source=K_rJo7VUP5JRiFo1Dydvmw", "review_count": 203, "categories": [{"alias": "italian", "title": "Italian"}, {"alias": "seafood", "title": "Seafood"}], "rating": 4.0, "coordinates": {"latitude": 38.068184, "longitude": -122.533537}, "transactions": ["delivery", "restaurant_reservation"], "price": "$$", "location": {"address1": "8 Commercial Blvd", "address2": "", "address3": "", "city": "Novato", "zip_code": "94949", "country": "US", "state": "CA", "display_address": ["8 Commercial Blvd", "Novato, CA 94949"]}, "phone": "+14153828488", "display_phone": "(415) 382-8488", "distance": 3672.2850855097954}, {"id": "oMlxpjYNPLGV-qAG1mqwPQ", "alias": "sol-food-san-rafael-3", "name": "Sol Food", "image_url": "https://s3-media3.fl.yelpcdn.com/bphoto/AY1I9x61sxD4mZjxnaMFHw/o.jpg", "is_closed": false, "url": "https://www.yelp.com/biz/sol-food-san-rafael-3?adjust_creative=K_rJo7VUP5JRiFo1Dydvmw&utm_campaign=yelp_api_v3&utm_medium=api_v3_business_search&utm_source=K_rJo7VUP5JRiFo1Dydvmw", "review_count": 4455, "categories": [{"alias": "latin", "title": "Latin American"}, {"alias": "puertorican", "title": "Puerto Rican"}, {"alias": "sandwiches", "title": "Sandwiches"}], "rating": 4.5, "coordinates": {"latitude": 37.971787, "longitude": -122.5242202}, "transactions": ["delivery"], "price": "$$", "location": {"address1": "901 Lincoln Ave", "address2": "", "address3": "", "city": "San Rafael", "zip_code": "94901", "country": "US", "state": "CA", "display_address": ["901 Lincoln Ave", "San Rafael, CA 94901"]}, "phone": "+14154514765", "display_phone": "(415) 451-4765", "distance": 13812.89789501566}, {"id": "CyI1K5uSrfQVgK-1YZ0afw", "alias": "jjs-burger-joint-novato", "name": "JJ's Burger Joint", "image_url": "https://s3-media4.fl.yelpcdn.com/bphoto/dSTSou611JWT8UwgViWRYA/o.jpg", "is_closed": false, "url": "https://www.yelp.com/biz/jjs-burger-joint-novato?adjust_creative=K_rJo7VUP5JRiFo1Dydvmw&utm_campaign=yelp_api_v3&utm_medium=api_v3_business_search&utm_source=K_rJo7VUP5JRiFo1Dydvmw", "review_count": 351, "categories": [{"alias": "burgers", "title": "Burgers"}, {"alias": "bbq", "title": "Barbeque"}, {"alias": "tradamerican", "title": "American (Traditional)"}], "rating": 4.5, "coordinates": {"latitude": 38.111646, "longitude": -122.592464}, "transactions": ["delivery", "pickup"], "price": "$$", "location": {"address1": "2031 Novato Blvd", "address2": "", "address3": "", "city": "Novato", "zip_code": "94947", "country": "US", "state": "CA", "display_address": ["2031 Novato Blvd", "Novato, CA 94947"]}, "phone": "+14158956677", "display_phone": "(415) 895-6677", "distance": 3413.266479866861}, {"id": "v1N0_tIa4U1srfqgbJSDgQ", "alias": "super-duper-burgers-novato-2", "name": "Super Duper Burgers", "image_url": "https://s3-media1.fl.yelpcdn.com/bphoto/uj0Wd80x3u1jwDkTVXh2DA/o.jpg", "is_closed": false, "url": "https://www.yelp.com/biz/super-duper-burgers-novato-2?adjust_creative=K_rJo7VUP5JRiFo1Dydvmw&utm_campaign=yelp_api_v3&utm_medium=api_v3_business_search&utm_source=K_rJo7VUP5JRiFo1Dydvmw", "review_count": 491, "categories": [{"alias": "burgers", "title": "Burgers"}, {"alias": "tradamerican", "title": "American (Traditional)"}], "rating": 4.0, "coordinates": {"latitude": 38.0632928821622, "longitude": -122.533205}, "transactions": ["delivery"], "price": "$$", "location": {"address1": "5800 Nave Dr", "address2": "Ste C", "address3": "Hamilton Marketplace", "city": "Novato", "zip_code": "94949", "country": "US", "state": "CA", "display_address": ["5800 Nave Dr", "Ste C", "Hamilton Marketplace", "Novato, CA 94949"]}, "phone": "+14153821980", "display_phone": "(415) 382-1980", "distance": 4105.320607503312}, {"id": "b6W4_SNnLk5MSgH8sBMfJg", "alias": "lous-takeaway-san-rafael", "name": "Lou's Takeaway", "image_url": "https://s3-media2.fl.yelpcdn.com/bphoto/jNweG5seWNtngPJm4Lqemg/o.jpg", "is_closed": false, "url": "https://www.yelp.com/biz/lous-takeaway-san-rafael?adjust_creative=K_rJo7VUP5JRiFo1Dydvmw&utm_campaign=yelp_api_v3&utm_medium=api_v3_business_search&utm_source=K_rJo7VUP5JRiFo1Dydvmw", "review_count": 81, "categories": [{"alias": "comfortfood", "title": "Comfort Food"}], "rating": 5.0, "coordinates": {"latitude": 38.014257, "longitude": -122.5600872}, "transactions": ["delivery"], "price": "$$", "location": {"address1": "621A Del Ganado Rd", "address2": null, "address3": "", "city": "San Rafael", "zip_code": "94903", "country": "US", "state": "CA", "display_address": ["621A Del Ganado Rd", "San Rafael, CA 94903"]}, "phone": "+14152267994", "display_phone": "(415) 226-7994", "distance": 8687.827870823774}, {"id": "b0f7PiV9j1KKwcE-byH9zA", "alias": "italian-delite-novato-2", "name": "Italian Delite", "image_url": "https://s3-media3.fl.yelpcdn.com/bphoto/PdVlIPFpo5tkyTdA07gp3A/o.jpg", "is_closed": false, "url": "https://www.yelp.com/biz/italian-delite-novato-2?adjust_creative=K_rJo7VUP5JRiFo1Dydvmw&utm_campaign=yelp_api_v3&utm_medium=api_v3_business_search&utm_source=K_rJo7VUP5JRiFo1Dydvmw", "review_count": 307, "categories": [{"alias": "italian", "title": "Italian"}, {"alias": "sandwiches", "title": "Sandwiches"}], "rating": 4.5, "coordinates": {"latitude": 38.1063343, "longitude": -122.5712238}, "transactions": ["delivery"], "price": "$", "location": {"address1": "971 Front St", "address2": "", "address3": "", "city": "Novato", "zip_code": "94945", "country": "US", "state": "CA", "display_address": ["971 Front St", "Novato, CA 94945"]}, "phone": "+14158929221", "display_phone": "(415) 892-9221", "distance": 1772.0564940418076}, {"id": "xW7aY9-w2V5U7VKQeVgItQ", "alias": "michaels-sourdough-sandwiches-novato", "name": "Michael's Sourdough Sandwiches", "image_url": "https://s3-media1.fl.yelpcdn.com/bphoto/qwn-5fzgoQHjIlCw3gZOcg/o.jpg", "is_closed": false, "url": "https://www.yelp.com/biz/michaels-sourdough-sandwiches-novato?adjust_creative=K_rJo7VUP5JRiFo1Dydvmw&utm_campaign=yelp_api_v3&utm_medium=api_v3_business_search&utm_source=K_rJo7VUP5JRiFo1Dydvmw", "review_count": 150, "categories": [{"alias": "delis", "title": "Delis"}, {"alias": "sandwiches", "title": "Sandwiches"}], "rating": 4.0, "coordinates": {"latitude": 38.070364, "longitude": -122.531407}, "transactions": [], "price": "$", "location": {"address1": "42 Digital Dr", "address2": "Ste 8", "address3": "", "city": "Novato", "zip_code": "94949", "country": "US", "state": "CA", "display_address": ["42 Digital Dr", "Ste 8", "Novato, CA 94949"]}, "phone": "+14158835110", "display_phone": "(415) 883-5110", "distance": 3634.184368838232}, {"id": "w-5EJzd-SeWi6Y3qQKyYhQ", "alias": "marvins-breakfast-club-novato", "name": "Marvin's Breakfast Club", "image_url": "https://s3-media1.fl.yelpcdn.com/bphoto/P2QcASjQr8ijAyuqpPprog/o.jpg", "is_closed": false, "url": "https://www.yelp.com/biz/marvins-breakfast-club-novato?adjust_creative=K_rJo7VUP5JRiFo1Dydvmw&utm_campaign=yelp_api_v3&utm_medium=api_v3_business_search&utm_source=K_rJo7VUP5JRiFo1Dydvmw", "review_count": 667, "categories": [{"alias": "breakfast_brunch", "title": "Breakfast & Brunch"}], "rating": 4.5, "coordinates": {"latitude": 38.1079694, "longitude": -122.5717214}, "transactions": [], "price": "$$", "location": {"address1": "1112 Grant Ave", "address2": "", "address3": "", "city": "Novato", "zip_code": "94945", "country": "US", "state": "CA", "display_address": ["1112 Grant Ave", "Novato, CA 94945"]}, "phone": "+14158924482", "display_phone": "(415) 892-4482", "distance": 1930.7978533648125}, {"id": "3x7de4dwSUJNbOM4ZOXGug", "alias": "forks-and-fingers-novato", "name": "Forks and Fingers", "image_url": "https://s3-media1.fl.yelpcdn.com/bphoto/VEy6-5YSyGOV4kivOOG54A/o.jpg", "is_closed": false, "url": "https://www.yelp.com/biz/forks-and-fingers-novato?adjust_creative=K_rJo7VUP5JRiFo1Dydvmw&utm_campaign=yelp_api_v3&utm_medium=api_v3_business_search&utm_source=K_rJo7VUP5JRiFo1Dydvmw", "review_count": 101, "categories": [{"alias": "catering", "title": "Caterers"}, {"alias": "cafes", "title": "Cafes"}], "rating": 4.5, "coordinates": {"latitude": 38.0736808776855, "longitude": -122.53694152832}, "transactions": ["delivery"], "price": "$", "location": {"address1": "372 Bel Marin Keys Blvd", "address2": "Ste M", "address3": "", "city": "Novato", "zip_code": "94949", "country": "US", "state": "CA", "display_address": ["372 Bel Marin Keys Blvd", "Ste M", "Novato, CA 94949"]}, "phone": "+14158831900", "display_phone": "(415) 883-1900", "distance": 3025.788071499845}, {"id": "_MCAiJVn3MyhkJjTgtFxJA", "alias": "bacon-novato", "name": "Bacon", "image_url": "https://s3-media4.fl.yelpcdn.com/bphoto/BnbvBqR_fuH6zaLTtiRw1A/o.jpg", "is_closed": false, "url": "https://www.yelp.com/biz/bacon-novato?adjust_creative=K_rJo7VUP5JRiFo1Dydvmw&utm_campaign=yelp_api_v3&utm_medium=api_v3_business_search&utm_source=K_rJo7VUP5JRiFo1Dydvmw", "review_count": 350, "categories": [{"alias": "breakfast_brunch", "title": "Breakfast & Brunch"}, {"alias": "burgers", "title": "Burgers"}, {"alias": "tradamerican", "title": "American (Traditional)"}], "rating": 4.0, "coordinates": {"latitude": 38.108987, "longitude": -122.576446}, "transactions": ["delivery"], "price": "$$", "location": {"address1": "1500 Grant Ave", "address2": "Ste 140", "address3": "", "city": "Novato", "zip_code": "94945", "country": "US", "state": "CA", "display_address": ["1500 Grant Ave", "Ste 140", "Novato, CA 94945"]}, "phone": "+14158929900", "display_phone": "(415) 892-9900", "distance": 2233.416171524741}, {"id": "Qf0R1i3rYYjeBcmSUOXrOA", "alias": "sushi-tri-novato-2", "name": "Sushi Tri", "image_url": "https://s3-media2.fl.yelpcdn.com/bphoto/voL-dyHo2K_cCjWiDHmDLQ/o.jpg", "is_closed": false, "url": "https://www.yelp.com/biz/sushi-tri-novato-2?adjust_creative=K_rJo7VUP5JRiFo1Dydvmw&utm_campaign=yelp_api_v3&utm_medium=api_v3_business_search&utm_source=K_rJo7VUP5JRiFo1Dydvmw", "review_count": 264, "categories": [{"alias": "sushi", "title": "Sushi Bars"}, {"alias": "japanese", "title": "Japanese"}], "rating": 4.0, "coordinates": {"latitude": 38.06725, "longitude": -122.53911}, "transactions": ["delivery"], "price": "$$", "location": {"address1": "333 Enfrente Rd", "address2": "", "address3": null, "city": "Novato", "zip_code": "94949", "country": "US", "state": "CA", "display_address": ["333 Enfrente Rd", "Novato, CA 94949"]}, "phone": "+14153829988", "display_phone": "(415) 382-9988", "distance": 3444.68146803141}, {"id": "rv0TTeF5kW6KM0mbKRO12w", "alias": "saffron-grill-and-market-novato-2", "name": "Saffron Grill & Market", "image_url": "https://s3-media2.fl.yelpcdn.com/bphoto/pvqkwIbDuz78vWcwPjdaVw/o.jpg", "is_closed": false, "url": "https://www.yelp.com/biz/saffron-grill-and-market-novato-2?adjust_creative=K_rJo7VUP5JRiFo1Dydvmw&utm_campaign=yelp_api_v3&utm_medium=api_v3_business_search&utm_source=K_rJo7VUP5JRiFo1Dydvmw", "review_count": 106, "categories": [{"alias": "grocery", "title": "Grocery"}, {"alias": "mediterranean", "title": "Mediterranean"}, {"alias": "persian", "title": "Persian/Iranian"}], "rating": 4.5, "coordinates": {"latitude": 38.0690524, "longitude": -122.5411165}, "transactions": ["pickup"], "price": "$$", "location": {"address1": "469 Entrada Dr", "address2": "", "address3": "", "city": "Novato", "zip_code": "94949", "country": "US", "state": "CA", "display_address": ["469 Entrada Dr", "Novato, CA 94949"]}, "phone": "+14155064277", "display_phone": "(415) 506-4277", "distance": 3204.903569591319}, {"id": "9pQyd0x6xLpMpWrrg8QTow", "alias": "l-and-l-hawaiian-barbecue-novato-4", "name": "L&L Hawaiian Barbecue", "image_url": "https://s3-media1.fl.yelpcdn.com/bphoto/xzoAQodaR8TYd9tEpG_43w/o.jpg", "is_closed": false, "url": "https://www.yelp.com/biz/l-and-l-hawaiian-barbecue-novato-4?adjust_creative=K_rJo7VUP5JRiFo1Dydvmw&utm_campaign=yelp_api_v3&utm_medium=api_v3_business_search&utm_source=K_rJo7VUP5JRiFo1Dydvmw", "review_count": 59, "categories": [{"alias": "bbq", "title": "Barbeque"}], "rating": 3.5, "coordinates": {"latitude": 38.10622, "longitude": -122.57008}, "transactions": ["delivery"], "location": {"address1": "7320 Redwood Blvd", "address2": "Ste B", "address3": null, "city": "Novato", "zip_code": "94945", "country": "US", "state": "CA", "display_address": ["7320 Redwood Blvd", "Ste B", "Novato, CA 94945"]}, "phone": "+14158926565", "display_phone": "(415) 892-6565", "distance": 1699.233886549754}, {"id": "t6E674wBr80442yTf_vURQ", "alias": "taqueria-mi-pueblo-iii-novato", "name": "Taqueria Mi Pueblo III", "image_url": "https://s3-media1.fl.yelpcdn.com/bphoto/_yyyZX-tBsqdKKOyGLvxKQ/o.jpg", "is_closed": false, "url": "https://www.yelp.com/biz/taqueria-mi-pueblo-iii-novato?adjust_creative=K_rJo7VUP5JRiFo1Dydvmw&utm_campaign=yelp_api_v3&utm_medium=api_v3_business_search&utm_source=K_rJo7VUP5JRiFo1Dydvmw", "review_count": 410, "categories": [{"alias": "mexican", "title": "Mexican"}], "rating": 3.5, "coordinates": {"latitude": 38.1071548461914, "longitude": -122.569313049316}, "transactions": ["delivery"], "price": "$$", "location": {"address1": "905 Grant Ave", "address2": "", "address3": "", "city": "Novato", "zip_code": "94945", "country": "US", "state": "CA", "display_address": ["905 Grant Ave", "Novato, CA 94945"]}, "phone": "+14158780122", "display_phone": "(415) 878-0122", "distance": 1754.3773977272238}, {"id": "aTrIb5IsDAeFYiASKBowVg", "alias": "chick-fil-a-novato-10", "name": "Chick-fil-A", "image_url": "https://s3-media1.fl.yelpcdn.com/bphoto/1E730xiMW30kXGpspbomPw/o.jpg", "is_closed": false, "url": "https://www.yelp.com/biz/chick-fil-a-novato-10?adjust_creative=K_rJo7VUP5JRiFo1Dydvmw&utm_campaign=yelp_api_v3&utm_medium=api_v3_business_search&utm_source=K_rJo7VUP5JRiFo1Dydvmw", "review_count": 253, "categories": [{"alias": "hotdogs", "title": "Fast Food"}], "rating": 3.0, "coordinates": {"latitude": 38.094081, "longitude": -122.557485}, "transactions": [], "price": "$", "location": {"address1": "35 Rowland Way", "address2": "", "address3": "", "city": "Novato", "zip_code": "94945", "country": "US", "state": "CA", "display_address": ["35 Rowland Way", "Novato, CA 94945"]}, "phone": "+14158977710", "display_phone": "(415) 897-7710", "distance": 446.5757137818826}, {"id": "zZDC_fErZBVe7jRlvromDw", "alias": "carmens-la-hacienda-restaurant-novato", "name": "Carmen's La Hacienda Restaurant", "image_url": "https://s3-media4.fl.yelpcdn.com/bphoto/yzKIshPeREZNMPi2XLa3Sg/o.jpg", "is_closed": false, "url": "https://www.yelp.com/biz/carmens-la-hacienda-restaurant-novato?adjust_creative=K_rJo7VUP5JRiFo1Dydvmw&utm_campaign=yelp_api_v3&utm_medium=api_v3_business_search&utm_source=K_rJo7VUP5JRiFo1Dydvmw", "review_count": 302, "categories": [{"alias": "mexican", "title": "Mexican"}], "rating": 4.0, "coordinates": {"latitude": 38.1082745, "longitude": -122.5745928}, "transactions": ["delivery"], "price": "$", "location": {"address1": "1401 Grant Ave", "address2": "", "address3": "", "city": "Novato", "zip_code": "94945", "country": "US", "state": "CA", "display_address": ["1401 Grant Ave", "Novato, CA 94945"]}, "phone": "+14158975514", "display_phone": "(415) 897-5514", "distance": 2074.9009372720543}, {"id": "s7z7kTY3IMUotg4R4QtjIQ", "alias": "my-thai-ii-restaurant-novato", "name": "My Thai II Restaurant", "image_url": "https://s3-media1.fl.yelpcdn.com/bphoto/_NHeLlockmgpsfo1FFA5xQ/o.jpg", "is_closed": false, "url": "https://www.yelp.com/biz/my-thai-ii-restaurant-novato?adjust_creative=K_rJo7VUP5JRiFo1Dydvmw&utm_campaign=yelp_api_v3&utm_medium=api_v3_business_search&utm_source=K_rJo7VUP5JRiFo1Dydvmw", "review_count": 230, "categories": [{"alias": "thai", "title": "Thai"}], "rating": 4.0, "coordinates": {"latitude": 38.1067, "longitude": -122.56686}, "transactions": ["delivery", "pickup"], "price": "$$", "location": {"address1": "811 Grant Ave", "address2": "", "address3": "", "city": "Novato", "zip_code": "94945", "country": "US", "state": "CA", "display_address": ["811 Grant Ave", "Novato, CA 94945"]}, "phone": "+14158955080", "display_phone": "(415) 895-5080", "distance": 1658.4640119247626}, {"id": "Bnd2RfOk2_42GSrRGBaOGg", "alias": "dragon-cafe-novato", "name": "Dragon Cafe", "image_url": "https://s3-media1.fl.yelpcdn.com/bphoto/wlYDWfrHoW1sk-oWqlg-qQ/o.jpg", "is_closed": false, "url": "https://www.yelp.com/biz/dragon-cafe-novato?adjust_creative=K_rJo7VUP5JRiFo1Dydvmw&utm_campaign=yelp_api_v3&utm_medium=api_v3_business_search&utm_source=K_rJo7VUP5JRiFo1Dydvmw", "review_count": 79, "categories": [{"alias": "chinese", "title": "Chinese"}], "rating": 4.0, "coordinates": {"latitude": 38.0653863, "longitude": -122.5400407}, "transactions": ["delivery"], "price": "$$", "location": {"address1": "528 Alameda Del Prado", "address2": "", "address3": "", "city": "Novato", "zip_code": "94949", "country": "US", "state": "CA", "display_address": ["528 Alameda Del Prado", "Novato, CA 94949"]}, "phone": "+14158834595", "display_phone": "(415) 883-4595", "distance": 3602.6734834164486}, {"id": "OyXaIhABVM3bwo6h66ELDg", "alias": "toast-restaurant-novato-4", "name": "Toast Restaurant", "image_url": "https://s3-media1.fl.yelpcdn.com/bphoto/W0-NRkuf8a1D-o5Za6z8IA/o.jpg", "is_closed": false, "url": "https://www.yelp.com/biz/toast-restaurant-novato-4?adjust_creative=K_rJo7VUP5JRiFo1Dydvmw&utm_campaign=yelp_api_v3&utm_medium=api_v3_business_search&utm_source=K_rJo7VUP5JRiFo1Dydvmw", "review_count": 913, "categories": [{"alias": "newamerican", "title": "American (New)"}, {"alias": "breakfast_brunch", "title": "Breakfast & Brunch"}, {"alias": "salad", "title": "Salad"}], "rating": 3.5, "coordinates": {"latitude": 38.063568, "longitude": -122.533413}, "transactions": ["delivery", "pickup"], "price": "$$", "location": {"address1": "5800 Nave Dr", "address2": "", "address3": "", "city": "Novato", "zip_code": "94949", "country": "US", "state": "CA", "display_address": ["5800 Nave Dr", "Novato, CA 94949"]}, "phone": "+14153821144", "display_phone": "(415) 382-1144", "distance": 4070.007527229711}, {"id": "-mYCYL1ghIoATbRNRpOJ4Q", "alias": "the-foraged-cafe-novato", "name": "The Foraged Cafe", "image_url": "https://s3-media3.fl.yelpcdn.com/bphoto/E_yUensfBrAQsD9WRnR5Bg/o.jpg", "is_closed": false, "url": "https://www.yelp.com/biz/the-foraged-cafe-novato?adjust_creative=K_rJo7VUP5JRiFo1Dydvmw&utm_campaign=yelp_api_v3&utm_medium=api_v3_business_search&utm_source=K_rJo7VUP5JRiFo1Dydvmw", "review_count": 3, "categories": [{"alias": "cafes", "title": "Cafes"}, {"alias": "breakfast_brunch", "title": "Breakfast & Brunch"}, {"alias": "soup", "title": "Soup"}], "rating": 4.5, "coordinates": {"latitude": 38.1252681826552, "longitude": -122.603917568922}, "transactions": ["delivery", "pickup"], "price": "$$", "location": {"address1": "351 San Andreas Dr", "address2": "", "address3": null, "city": "Novato", "zip_code": "94947", "country": "US", "state": "CA", "display_address": ["351 San Andreas Dr", "Novato, CA 94947"]}, "phone": "+14155724315", "display_phone": "(415) 572-4315", "distance": 5173.384476365269}, {"id": "vqTa8n3-QdMCfT2TzXk05A", "alias": "in-n-out-burger-novato", "name": "In-N-Out Burger", "image_url": "https://s3-media3.fl.yelpcdn.com/bphoto/1crbJDVN0l9ANQt2oRo7DQ/o.jpg", "is_closed": false, "url": "https://www.yelp.com/biz/in-n-out-burger-novato?adjust_creative=K_rJo7VUP5JRiFo1Dydvmw&utm_campaign=yelp_api_v3&utm_medium=api_v3_business_search&utm_source=K_rJo7VUP5JRiFo1Dydvmw", "review_count": 144, "categories": [{"alias": "burgers", "title": "Burgers"}, {"alias": "hotdogs", "title": "Fast Food"}], "rating": 3.5, "coordinates": {"latitude": 38.089685, "longitude": -122.554909}, "transactions": [], "price": "$", "location": {"address1": "216 Vintage Way", "address2": "", "address3": "", "city": "Novato", "zip_code": "94945", "country": "US", "state": "CA", "display_address": ["216 Vintage Way", "Novato, CA 94945"]}, "phone": "+18007861000", "display_phone": "(800) 786-1000", "distance": 696.9181466457036}, {"id": "0V5gzeGKeNoxSfAuJuBvOg", "alias": "masas-sushi-and-appetizer-novato", "name": "Masa's Sushi and Appetizer", "image_url": "https://s3-media4.fl.yelpcdn.com/bphoto/o7JNiSrupdVYzkSA26lUtg/o.jpg", "is_closed": false, "url": "https://www.yelp.com/biz/masas-sushi-and-appetizer-novato?adjust_creative=K_rJo7VUP5JRiFo1Dydvmw&utm_campaign=yelp_api_v3&utm_medium=api_v3_business_search&utm_source=K_rJo7VUP5JRiFo1Dydvmw", "review_count": 256, "categories": [{"alias": "sushi", "title": "Sushi Bars"}, {"alias": "japanese", "title": "Japanese"}], "rating": 4.0, "coordinates": {"latitude": 38.106876, "longitude": -122.56696}, "transactions": ["delivery", "pickup"], "price": "$$", "location": {"address1": "813 Grant Ave", "address2": null, "address3": "", "city": "Novato", "zip_code": "94945", "country": "US", "state": "CA", "display_address": ["813 Grant Ave", "Novato, CA 94945"]}, "phone": "+14158920081", "display_phone": "(415) 892-0081", "distance": 1666.315678912971}, {"id": "0zhGLRoLkLAw33K6awBdpQ", "alias": "taqueria-real-novato", "name": "Taqueria Real", "image_url": "https://s3-media2.fl.yelpcdn.com/bphoto/247yGi0UASFByZpGqixNoA/o.jpg", "is_closed": false, "url": "https://www.yelp.com/biz/taqueria-real-novato?adjust_creative=K_rJo7VUP5JRiFo1Dydvmw&utm_campaign=yelp_api_v3&utm_medium=api_v3_business_search&utm_source=K_rJo7VUP5JRiFo1Dydvmw", "review_count": 185, "categories": [{"alias": "mexican", "title": "Mexican"}], "rating": 3.5, "coordinates": {"latitude": 38.07293, "longitude": -122.53638}, "transactions": ["pickup"], "price": "$", "location": {"address1": "354 Bel Marin Keys Blvd", "address2": "", "address3": "", "city": "Novato", "zip_code": "94949", "country": "US", "state": "CA", "display_address": ["354 Bel Marin Keys Blvd", "Novato, CA 94949"]}, "phone": "+14153820522", "display_phone": "(415) 382-0522", "distance": 3116.101590701286}, {"id": "UWhU6UPNpraGSJjiPsuTGQ", "alias": "grazie-restaurant-novato", "name": "Grazie Restaurant", "image_url": "https://s3-media1.fl.yelpcdn.com/bphoto/4egL2lL26JJ13w4bM9cFdw/o.jpg", "is_closed": false, "url": "https://www.yelp.com/biz/grazie-restaurant-novato?adjust_creative=K_rJo7VUP5JRiFo1Dydvmw&utm_campaign=yelp_api_v3&utm_medium=api_v3_business_search&utm_source=K_rJo7VUP5JRiFo1Dydvmw", "review_count": 381, "categories": [{"alias": "italian", "title": "Italian"}, {"alias": "newamerican", "title": "American (New)"}, {"alias": "breakfast_brunch", "title": "Breakfast & Brunch"}], "rating": 4.0, "coordinates": {"latitude": 38.10691, "longitude": -122.56739}, "transactions": ["delivery"], "price": "$$", "location": {"address1": "823 Grant Ave", "address2": null, "address3": "", "city": "Novato", "zip_code": "94945", "country": "US", "state": "CA", "display_address": ["823 Grant Ave", "Novato, CA 94945"]}, "phone": "+14158975181", "display_phone": "(415) 897-5181", "distance": 1683.1338597640433}, {"id": "XZ206kigGq7-yKJNZepkxw", "alias": "uchiwa-ramen-san-rafael-2", "name": "Uchiwa Ramen", "image_url": "https://s3-media1.fl.yelpcdn.com/bphoto/p_-dNRDMxIgqW2IshVFMqA/o.jpg", "is_closed": false, "url": "https://www.yelp.com/biz/uchiwa-ramen-san-rafael-2?adjust_creative=K_rJo7VUP5JRiFo1Dydvmw&utm_campaign=yelp_api_v3&utm_medium=api_v3_business_search&utm_source=K_rJo7VUP5JRiFo1Dydvmw", "review_count": 438, "categories": [{"alias": "ramen", "title": "Ramen"}, {"alias": "asianfusion", "title": "Asian Fusion"}, {"alias": "gluten_free", "title": "Gluten-Free"}], "rating": 4.0, "coordinates": {"latitude": 37.971776, "longitude": -122.529937}, "transactions": ["delivery", "restaurant_reservation"], "price": "$$", "location": {"address1": "821 B St", "address2": "", "address3": "", "city": "San Rafael", "zip_code": "94901", "country": "US", "state": "CA", "display_address": ["821 B St", "San Rafael, CA 94901"]}, "phone": "+14155242727", "display_phone": "(415) 524-2727", "distance": 13702.446254758554}, {"id": "QkdsQRCVtlQql-g-G6GpNg", "alias": "hopmonk-tavern-novato-novato-2", "name": "HopMonk Tavern Novato", "image_url": "https://s3-media3.fl.yelpcdn.com/bphoto/RrEp9hXAkPdY8RetP-H44Q/o.jpg", "is_closed": false, "url": "https://www.yelp.com/biz/hopmonk-tavern-novato-novato-2?adjust_creative=K_rJo7VUP5JRiFo1Dydvmw&utm_campaign=yelp_api_v3&utm_medium=api_v3_business_search&utm_source=K_rJo7VUP5JRiFo1Dydvmw", "review_count": 637, "categories": [{"alias": "newamerican", "title": "American (New)"}, {"alias": "bars", "title": "Bars"}, {"alias": "musicvenues", "title": "Music Venues"}], "rating": 3.5, "coordinates": {"latitude": 38.0882715, "longitude": -122.5538328}, "transactions": ["delivery", "restaurant_reservation", "pickup"], "price": "$$", "location": {"address1": "224 Vintage Way", "address2": "", "address3": "", "city": "Novato", "zip_code": "94945", "country": "US", "state": "CA", "display_address": ["224 Vintage Way", "Novato, CA 94945"]}, "phone": "+14158926200", "display_phone": "(415) 892-6200", "distance": 868.7758239315343}, {"id": "dIT-8bTpKbbuC5_cJYP0vg", "alias": "thailand-restaurant-novato", "name": "Thailand Restaurant", "image_url": "https://s3-media2.fl.yelpcdn.com/bphoto/9xzVh4I0vIWDtNNuOKEorw/o.jpg", "is_closed": false, "url": "https://www.yelp.com/biz/thailand-restaurant-novato?adjust_creative=K_rJo7VUP5JRiFo1Dydvmw&utm_campaign=yelp_api_v3&utm_medium=api_v3_business_search&utm_source=K_rJo7VUP5JRiFo1Dydvmw", "review_count": 33, "categories": [{"alias": "thai", "title": "Thai"}], "rating": 3.0, "coordinates": {"latitude": 38.06378, "longitude": -122.53362}, "transactions": [], "location": {"address1": "5800 Nave Dr", "address2": "Ste D", "address3": null, "city": "Novato", "zip_code": "94949", "country": "US", "state": "CA", "display_address": ["5800 Nave Dr", "Ste D", "Novato, CA 94949"]}, "phone": "+14158831899", "display_phone": "(415) 883-1899", "distance": 4060.1664534182655}, {"id": "4oxo_cE74uYgmz2mlRTsyw", "alias": "what-a-chicken-petaluma", "name": "What A Chicken", "image_url": "https://s3-media3.fl.yelpcdn.com/bphoto/GwbKs6me_uje8-Ns9eu3Tg/o.jpg", "is_closed": false, "url": "https://www.yelp.com/biz/what-a-chicken-petaluma?adjust_creative=K_rJo7VUP5JRiFo1Dydvmw&utm_campaign=yelp_api_v3&utm_medium=api_v3_business_search&utm_source=K_rJo7VUP5JRiFo1Dydvmw", "review_count": 353, "categories": [{"alias": "mexican", "title": "Mexican"}], "rating": 4.5, "coordinates": {"latitude": 38.24105, "longitude": -122.63294}, "transactions": [], "price": "$$", "location": {"address1": "706 E Washington St", "address2": "", "address3": null, "city": "Petaluma", "zip_code": "94952", "country": "US", "state": "CA", "display_address": ["706 E Washington St", "Petaluma, CA 94952"]}, "phone": "+17079717549", "display_phone": "(707) 971-7549", "distance": 17669.855378830616}, {"id": "5Mm58WZFzrWbtXop9mylkg", "alias": "mod-pizza-novato", "name": "MOD Pizza", "image_url": "https://s3-media2.fl.yelpcdn.com/bphoto/f3uM5fmQR6HiqsPu9dR47w/o.jpg", "is_closed": false, "url": "https://www.yelp.com/biz/mod-pizza-novato?adjust_creative=K_rJo7VUP5JRiFo1Dydvmw&utm_campaign=yelp_api_v3&utm_medium=api_v3_business_search&utm_source=K_rJo7VUP5JRiFo1Dydvmw", "review_count": 148, "categories": [{"alias": "hotdogs", "title": "Fast Food"}, {"alias": "pizza", "title": "Pizza"}], "rating": 3.5, "coordinates": {"latitude": 38.0910921, "longitude": -122.5562176}, "transactions": [], "price": "$", "location": {"address1": "140 Vintage Way", "address2": null, "address3": null, "city": "Novato", "zip_code": "94945", "country": "US", "state": "CA", "display_address": ["140 Vintage Way", "Novato, CA 94945"]}, "phone": "+16282037170", "display_phone": "(628) 203-7170", "distance": 642.9037786779436}, {"id": "ofAJNgc1CNRucCCKNZmvZg", "alias": "rickeys-restaurant-novato-2", "name": "Rickey's Restaurant", "image_url": "https://s3-media2.fl.yelpcdn.com/bphoto/64pCW_CCsLCEclTvLLqF2g/o.jpg", "is_closed": false, "url": "https://www.yelp.com/biz/rickeys-restaurant-novato-2?adjust_creative=K_rJo7VUP5JRiFo1Dydvmw&utm_campaign=yelp_api_v3&utm_medium=api_v3_business_search&utm_source=K_rJo7VUP5JRiFo1Dydvmw", "review_count": 41, "categories": [{"alias": "newamerican", "title": "American (New)"}, {"alias": "seafood", "title": "Seafood"}, {"alias": "bars", "title": "Bars"}], "rating": 4.0, "coordinates": {"latitude": 38.07058, "longitude": -122.53998}, "transactions": [], "price": "$$", "location": {"address1": "250 Entrada Dr", "address2": "", "address3": null, "city": "Novato", "zip_code": "94949", "country": "US", "state": "CA", "display_address": ["250 Entrada Dr", "Novato, CA 94949"]}, "phone": "+14158702990", "display_phone": "(415) 870-2990", "distance": 3108.371604590813}, {"id": "KIUsi3q2GxrMyNf3peUrsA", "alias": "beso-bistro-and-wine-bar-novato", "name": "Beso Bistro And Wine Bar", "image_url": "https://s3-media1.fl.yelpcdn.com/bphoto/OHaqezTAbzWB65vN-mUgqA/o.jpg", "is_closed": false, "url": "https://www.yelp.com/biz/beso-bistro-and-wine-bar-novato?adjust_creative=K_rJo7VUP5JRiFo1Dydvmw&utm_campaign=yelp_api_v3&utm_medium=api_v3_business_search&utm_source=K_rJo7VUP5JRiFo1Dydvmw", "review_count": 257, "categories": [{"alias": "newamerican", "title": "American (New)"}, {"alias": "wine_bars", "title": "Wine Bars"}, {"alias": "seafood", "title": "Seafood"}], "rating": 4.0, "coordinates": {"latitude": 38.0572482, "longitude": -122.5183875}, "transactions": ["delivery"], "price": "$$", "location": {"address1": "502 S Palm Dr", "address2": "", "address3": "", "city": "Novato", "zip_code": "94949", "country": "US", "state": "CA", "display_address": ["502 S Palm Dr", "Novato, CA 94949"]}, "phone": "+14158836700", "display_phone": "(415) 883-6700", "distance": 5467.790398579331}, {"id": "Poor9bVykb_lXSsynN8HSg", "alias": "belli-deli-novato", "name": "Belli Deli", "image_url": "https://s3-media2.fl.yelpcdn.com/bphoto/pS9pJRbLy2XNN2sbaagb_g/o.jpg", "is_closed": false, "url": "https://www.yelp.com/biz/belli-deli-novato?adjust_creative=K_rJo7VUP5JRiFo1Dydvmw&utm_campaign=yelp_api_v3&utm_medium=api_v3_business_search&utm_source=K_rJo7VUP5JRiFo1Dydvmw", "review_count": 86, "categories": [{"alias": "delis", "title": "Delis"}, {"alias": "sandwiches", "title": "Sandwiches"}], "rating": 4.5, "coordinates": {"latitude": 38.1150499, "longitude": -122.56302}, "transactions": [], "price": "$", "location": {"address1": "1530 Armstrong Ave", "address2": "", "address3": "", "city": "Novato", "zip_code": "94945", "country": "US", "state": "CA", "display_address": ["1530 Armstrong Ave", "Novato, CA 94945"]}, "phone": "+14158975770", "display_phone": "(415) 897-5770", "distance": 2641.4345050407787}, {"id": "5YrrQy9O4lia4m1lbCFZVA", "alias": "lotus-curry-house-novato", "name": "Lotus Curry House", "image_url": "https://s3-media1.fl.yelpcdn.com/bphoto/lm5dLNFUtbndkLpIvQ_A9g/o.jpg", "is_closed": false, "url": "https://www.yelp.com/biz/lotus-curry-house-novato?adjust_creative=K_rJo7VUP5JRiFo1Dydvmw&utm_campaign=yelp_api_v3&utm_medium=api_v3_business_search&utm_source=K_rJo7VUP5JRiFo1Dydvmw", "review_count": 46, "categories": [{"alias": "indpak", "title": "Indian"}], "rating": 4.5, "coordinates": {"latitude": 38.10668, "longitude": -122.56674}, "transactions": ["delivery"], "location": {"address1": "807 Grant Ave", "address2": "", "address3": null, "city": "Novato", "zip_code": "94945", "country": "US", "state": "CA", "display_address": ["807 Grant Ave", "Novato, CA 94945"]}, "phone": "+14154083911", "display_phone": "(415) 408-3911", "distance": 1644.5216781318954}, {"id": "71HIWwu-wqjbqiJpaeWCGA", "alias": "maya-palenque-novato", "name": "Maya Palenque", "image_url": "https://s3-media2.fl.yelpcdn.com/bphoto/DmorMty297ybSXV-FIRaSw/o.jpg", "is_closed": false, "url": "https://www.yelp.com/biz/maya-palenque-novato?adjust_creative=K_rJo7VUP5JRiFo1Dydvmw&utm_campaign=yelp_api_v3&utm_medium=api_v3_business_search&utm_source=K_rJo7VUP5JRiFo1Dydvmw", "review_count": 174, "categories": [{"alias": "mexican", "title": "Mexican"}, {"alias": "cocktailbars", "title": "Cocktail Bars"}], "rating": 3.0, "coordinates": {"latitude": 38.0678084, "longitude": -122.5388635}, "transactions": [], "price": "$$", "location": {"address1": "349 Enfrente Rd", "address2": "", "address3": "", "city": "Novato", "zip_code": "94949", "country": "US", "state": "CA", "display_address": ["349 Enfrente Rd", "Novato, CA 94949"]}, "phone": "+14158836292", "display_phone": "(415) 883-6292", "distance": 3405.600491846532}, {"id": "KPoKHPoqagn8eA-lGResuQ", "alias": "el-rey-mexican-bar-and-grill-novato-3", "name": "El Rey Mexican Bar and Grill", "image_url": "https://s3-media2.fl.yelpcdn.com/bphoto/jsv0qYX6Bbwkaf0B_ytYsQ/o.jpg", "is_closed": false, "url": "https://www.yelp.com/biz/el-rey-mexican-bar-and-grill-novato-3?adjust_creative=K_rJo7VUP5JRiFo1Dydvmw&utm_campaign=yelp_api_v3&utm_medium=api_v3_business_search&utm_source=K_rJo7VUP5JRiFo1Dydvmw", "review_count": 85, "categories": [{"alias": "mexican", "title": "Mexican"}, {"alias": "cocktailbars", "title": "Cocktail Bars"}, {"alias": "sandwiches", "title": "Sandwiches"}], "rating": 4.0, "coordinates": {"latitude": 38.1077, "longitude": -122.57795}, "transactions": ["delivery"], "price": "$$", "location": {"address1": "940 7th St", "address2": null, "address3": "", "city": "Novato", "zip_code": "94947", "country": "US", "state": "CA", "display_address": ["940 7th St", "Novato, CA 94947"]}, "phone": "+14158921471", "display_phone": "(415) 892-1471", "distance": 2215.619779395118}, {"id": "ks_2w1GG3kc3lc4mbeb9QA", "alias": "batika-india-bistro-novato-2", "name": "Batika India Bistro", "image_url": "https://s3-media1.fl.yelpcdn.com/bphoto/gvhY3fZzMVclBmU_2l4JxA/o.jpg", "is_closed": false, "url": "https://www.yelp.com/biz/batika-india-bistro-novato-2?adjust_creative=K_rJo7VUP5JRiFo1Dydvmw&utm_campaign=yelp_api_v3&utm_medium=api_v3_business_search&utm_source=K_rJo7VUP5JRiFo1Dydvmw", "review_count": 395, "categories": [{"alias": "indpak", "title": "Indian"}], "rating": 4.0, "coordinates": {"latitude": 38.107758, "longitude": -122.568242}, "transactions": ["delivery", "pickup"], "price": "$$", "location": {"address1": "868 Grant Ave", "address2": "", "address3": "", "city": "Novato", "zip_code": "94945", "country": "US", "state": "CA", "display_address": ["868 Grant Ave", "Novato, CA 94945"]}, "phone": "+14158955757", "display_phone": "(415) 895-5757", "distance": 1793.1379451651192}, {"id": "bhZA0iwyicgthEDY9kXAmg", "alias": "nugget-markets-novato", "name": "Nugget Markets", "image_url": "https://s3-media3.fl.yelpcdn.com/bphoto/mPUdac8JMc8VCnE3G9As4Q/o.jpg", "is_closed": false, "url": "https://www.yelp.com/biz/nugget-markets-novato?adjust_creative=K_rJo7VUP5JRiFo1Dydvmw&utm_campaign=yelp_api_v3&utm_medium=api_v3_business_search&utm_source=K_rJo7VUP5JRiFo1Dydvmw", "review_count": 87, "categories": [{"alias": "grocery", "title": "Grocery"}, {"alias": "markets", "title": "Fruits & Veggies"}, {"alias": "sandwiches", "title": "Sandwiches"}], "rating": 4.0, "coordinates": {"latitude": 38.0673514770916, "longitude": -122.543033141425}, "transactions": [], "price": "$$", "location": {"address1": "470 Ignacio Blvd", "address2": "", "address3": "", "city": "Novato", "zip_code": "94949", "country": "US", "state": "CA", "display_address": ["470 Ignacio Blvd", "Novato, CA 94949"]}, "phone": "+14158834600", "display_phone": "(415) 883-4600", "distance": 3244.493703964203}, {"id": "zg-tgLXY8qh2DfZwci4zZg", "alias": "runway-cafe-novato-3", "name": "Runway Cafe", "image_url": "https://s3-media2.fl.yelpcdn.com/bphoto/U4VwC2wiMTJT3WS4paBD-w/o.jpg", "is_closed": false, "url": "https://www.yelp.com/biz/runway-cafe-novato-3?adjust_creative=K_rJo7VUP5JRiFo1Dydvmw&utm_campaign=yelp_api_v3&utm_medium=api_v3_business_search&utm_source=K_rJo7VUP5JRiFo1Dydvmw", "review_count": 11, "categories": [{"alias": "cafes", "title": "Cafes"}, {"alias": "juicebars", "title": "Juice Bars & Smoothies"}, {"alias": "tradamerican", "title": "American (Traditional)"}], "rating": 5.0, "coordinates": {"latitude": 38.057884, "longitude": -122.514174}, "transactions": [], "location": {"address1": "6 Hamilton Landing", "address2": "Ste 100", "address3": "", "city": "Novato", "zip_code": "94949", "country": "US", "state": "CA", "display_address": ["6 Hamilton Landing", "Ste 100", "Novato, CA 94949"]}, "phone": "+14156124210", "display_phone": "(415) 612-4210", "distance": 5684.014249893206}, {"id": "744jvwQRBaamOZyBegVjtg", "alias": "banh-mi-zon-san-rafael-3", "name": "Banh Mi Zon", "image_url": "https://s3-media3.fl.yelpcdn.com/bphoto/xDYKDR3gjBoXKjOKUaAScA/o.jpg", "is_closed": false, "url": "https://www.yelp.com/biz/banh-mi-zon-san-rafael-3?adjust_creative=K_rJo7VUP5JRiFo1Dydvmw&utm_campaign=yelp_api_v3&utm_medium=api_v3_business_search&utm_source=K_rJo7VUP5JRiFo1Dydvmw", "review_count": 142, "categories": [{"alias": "foodtrucks", "title": "Food Trucks"}, {"alias": "vietnamese", "title": "Vietnamese"}, {"alias": "asianfusion", "title": "Asian Fusion"}], "rating": 4.0, "coordinates": {"latitude": 37.99652, "longitude": -122.52798}, "transactions": ["pickup"], "price": "$", "location": {"address1": "76 San Pablo Ave", "address2": "", "address3": "", "city": "San Rafael", "zip_code": "94903", "country": "US", "state": "CA", "display_address": ["76 San Pablo Ave", "San Rafael, CA 94903"]}, "phone": "+14155215289", "display_phone": "(415) 521-5289", "distance": 11065.522874589848}, {"id": "nYFiEOs7ytfmDkdxTFNq2g", "alias": "china-house-novato", "name": "China House", "image_url": "https://s3-media3.fl.yelpcdn.com/bphoto/SYKAgpc67LaQkCLeMZ3Kvg/o.jpg", "is_closed": false, "url": "https://www.yelp.com/biz/china-house-novato?adjust_creative=K_rJo7VUP5JRiFo1Dydvmw&utm_campaign=yelp_api_v3&utm_medium=api_v3_business_search&utm_source=K_rJo7VUP5JRiFo1Dydvmw", "review_count": 99, "categories": [{"alias": "chinese", "title": "Chinese"}], "rating": 4.0, "coordinates": {"latitude": 38.1082069, "longitude": -122.5728704}, "transactions": ["delivery", "pickup"], "price": "$", "location": {"address1": "1222 Grant Ave", "address2": "", "address3": "", "city": "Novato", "zip_code": "94945", "country": "US", "state": "CA", "display_address": ["1222 Grant Ave", "Novato, CA 94945"]}, "phone": "+14158979630", "display_phone": "(415) 897-9630", "distance": 2031.098542773875}, {"id": "Uf2fPLbPU5Xfr0cGyA40dA", "alias": "ming-yen-novato-2", "name": "Ming Yen", "image_url": "https://s3-media1.fl.yelpcdn.com/bphoto/wQ9kKrjJRJoJvFJJQ7BLHg/o.jpg", "is_closed": false, "url": "https://www.yelp.com/biz/ming-yen-novato-2?adjust_creative=K_rJo7VUP5JRiFo1Dydvmw&utm_campaign=yelp_api_v3&utm_medium=api_v3_business_search&utm_source=K_rJo7VUP5JRiFo1Dydvmw", "review_count": 192, "categories": [{"alias": "chinese", "title": "Chinese"}], "rating": 4.0, "coordinates": {"latitude": 38.1094, "longitude": -122.57795}, "transactions": ["delivery", "pickup"], "price": "$$", "location": {"address1": "1628 Grant Ave", "address2": "", "address3": "", "city": "Novato", "zip_code": "94945", "country": "US", "state": "CA", "display_address": ["1628 Grant Ave", "Novato, CA 94945"]}, "phone": "+14158975800", "display_phone": "(415) 897-5800", "distance": 2343.871265456078}, {"id": "881XibsEOmKAkfgGtzcq9w", "alias": "soban-korean-cuisine-petaluma", "name": "Soban Korean Cuisine", "image_url": "https://s3-media1.fl.yelpcdn.com/bphoto/pTZwj5XnOnQ4LVToqBdvnw/o.jpg", "is_closed": false, "url": "https://www.yelp.com/biz/soban-korean-cuisine-petaluma?adjust_creative=K_rJo7VUP5JRiFo1Dydvmw&utm_campaign=yelp_api_v3&utm_medium=api_v3_business_search&utm_source=K_rJo7VUP5JRiFo1Dydvmw", "review_count": 227, "categories": [{"alias": "korean", "title": "Korean"}], "rating": 4.5, "coordinates": {"latitude": 38.2493072835967, "longitude": -122.630199068012}, "transactions": [], "price": "$$", "location": {"address1": "255 N McDowell Blvd", "address2": "", "address3": "", "city": "Petaluma", "zip_code": "94954", "country": "US", "state": "CA", "display_address": ["255 N McDowell Blvd", "Petaluma, CA 94954"]}, "phone": "+17077693112", "display_phone": "(707) 769-3112", "distance": 18437.736123071754}, {"id": "V04as2cl_UFexTNX9RwNBQ", "alias": "taki-japanese-restaurant-novato", "name": "Taki Japanese Restaurant", "image_url": "https://s3-media4.fl.yelpcdn.com/bphoto/zIzKThobVgybisIoRFicKA/o.jpg", "is_closed": false, "url": "https://www.yelp.com/biz/taki-japanese-restaurant-novato?adjust_creative=K_rJo7VUP5JRiFo1Dydvmw&utm_campaign=yelp_api_v3&utm_medium=api_v3_business_search&utm_source=K_rJo7VUP5JRiFo1Dydvmw", "review_count": 281, "categories": [{"alias": "japanese", "title": "Japanese"}, {"alias": "sushi", "title": "Sushi Bars"}, {"alias": "gluten_free", "title": "Gluten-Free"}], "rating": 4.0, "coordinates": {"latitude": 38.0667055, "longitude": -122.5430193}, "transactions": ["delivery"], "price": "$$", "location": {"address1": "452 Ignacio Blvd", "address2": "", "address3": "", "city": "Novato", "zip_code": "94949", "country": "US", "state": "CA", "display_address": ["452 Ignacio Blvd", "Novato, CA 94949"]}, "phone": "+14158832423", "display_phone": "(415) 883-2423", "distance": 3264.728691795254}, {"id": "2ZxWHuL8fMJQC0zr8fEojw", "alias": "the-kitchen-table-san-rafael-3", "name": "The Kitchen Table", "image_url": "https://s3-media3.fl.yelpcdn.com/bphoto/0iVAb9f9TagYvmhx3NKNIQ/o.jpg", "is_closed": false, "url": "https://www.yelp.com/biz/the-kitchen-table-san-rafael-3?adjust_creative=K_rJo7VUP5JRiFo1Dydvmw&utm_campaign=yelp_api_v3&utm_medium=api_v3_business_search&utm_source=K_rJo7VUP5JRiFo1Dydvmw", "review_count": 186, "categories": [{"alias": "italian", "title": "Italian"}, {"alias": "newamerican", "title": "American (New)"}], "rating": 4.5, "coordinates": {"latitude": 37.9740899, "longitude": -122.5363}, "transactions": ["delivery", "restaurant_reservation"], "price": "$$", "location": {"address1": "1574 4th St", "address2": "", "address3": null, "city": "San Rafael", "zip_code": "94901", "country": "US", "state": "CA", "display_address": ["1574 4th St", "San Rafael, CA 94901"]}, "phone": "+14155215568", "display_phone": "(415) 521-5568", "distance": 13350.91190422498}, {"id": "JElyJ2MIa3GkM1tPNzC5nA", "alias": "foodles-san-rafael", "name": "Foodles", "image_url": "https://s3-media2.fl.yelpcdn.com/bphoto/XR6xtFXKSNBAu-V32gLn9w/o.jpg", "is_closed": false, "url": "https://www.yelp.com/biz/foodles-san-rafael?adjust_creative=K_rJo7VUP5JRiFo1Dydvmw&utm_campaign=yelp_api_v3&utm_medium=api_v3_business_search&utm_source=K_rJo7VUP5JRiFo1Dydvmw", "review_count": 95, "categories": [{"alias": "sandwiches", "title": "Sandwiches"}, {"alias": "korean", "title": "Korean"}, {"alias": "breakfast_brunch", "title": "Breakfast & Brunch"}], "rating": 4.5, "coordinates": {"latitude": 37.95877, "longitude": -122.50048}, "transactions": ["delivery"], "price": "$", "location": {"address1": "3140 Kerner Blvd", "address2": "Ste G", "address3": "", "city": "San Rafael", "zip_code": "94901", "country": "US", "state": "CA", "display_address": ["3140 Kerner Blvd", "Ste G", "San Rafael, CA 94901"]}, "phone": "+14154575000", "display_phone": "(415) 457-5000", "distance": 15811.380961416924}, {"id": "461g_eFT-QaoBKjc_HWHVA", "alias": "sushiholic-novato", "name": "Sushiholic", "image_url": "https://s3-media4.fl.yelpcdn.com/bphoto/520iyPPtThd1xRW9ox1vIw/o.jpg", "is_closed": false, "url": "https://www.yelp.com/biz/sushiholic-novato?adjust_creative=K_rJo7VUP5JRiFo1Dydvmw&utm_campaign=yelp_api_v3&utm_medium=api_v3_business_search&utm_source=K_rJo7VUP5JRiFo1Dydvmw", "review_count": 342, "categories": [{"alias": "japanese", "title": "Japanese"}, {"alias": "sushi", "title": "Sushi Bars"}], "rating": 3.5, "coordinates": {"latitude": 38.0916437303352, "longitude": -122.554037704843}, "transactions": ["delivery"], "price": "$$", "location": {"address1": "112 Vintage Way", "address2": "", "address3": "", "city": "Novato", "zip_code": "94998", "country": "US", "state": "CA", "display_address": ["112 Vintage Way", "Novato, CA 94998"]}, "phone": "+14158988500", "display_phone": "(415) 898-8500", "distance": 710.4752581166248}, {"id": "Sjxacr_yZBnZ4La5OqVIPA", "alias": "lous-luncheonette-sonoma", "name": "Lou's Luncheonette", "image_url": "https://s3-media1.fl.yelpcdn.com/bphoto/jANDDaOnDwBJ6gs0StAZ3g/o.jpg", "is_closed": false, "url": "https://www.yelp.com/biz/lous-luncheonette-sonoma?adjust_creative=K_rJo7VUP5JRiFo1Dydvmw&utm_campaign=yelp_api_v3&utm_medium=api_v3_business_search&utm_source=K_rJo7VUP5JRiFo1Dydvmw", "review_count": 129, "categories": [{"alias": "tradamerican", "title": "American (Traditional)"}, {"alias": "chicken_wings", "title": "Chicken Wings"}], "rating": 4.0, "coordinates": {"latitude": 38.2466841, "longitude": -122.4172356}, "transactions": [], "price": "$$", "location": {"address1": "2698 Fremont Dr", "address2": null, "address3": "", "city": "Sonoma", "zip_code": "95476", "country": "US", "state": "CA", "display_address": ["2698 Fremont Dr", "Sonoma, CA 95476"]}, "phone": "+17079387370", "display_phone": "(707) 938-7370", "distance": 21333.523358645725}], "total": 1100, "region": {"center": {"longitude": -122.56210327148438, "latitude": 38.092372469871066}}}