{"businesses": [{"id": "LBKHga7_i8Y469-g9Y1CHw", "alias": "half-day-cafe-kentfield", "name": "Half Day Cafe", "image_url": "https://s3-media3.fl.yelpcdn.com/bphoto/eheLBWzn0jdB2_pNy91WMw/o.jpg", "is_closed": false, "url": "https://www.yelp.com/biz/half-day-cafe-kentfield?adjust_creative=K_rJo7VUP5JRiFo1Dydvmw&utm_campaign=yelp_api_v3&utm_medium=api_v3_business_search&utm_source=K_rJo7VUP5JRiFo1Dydvmw", "review_count": 308, "categories": [{"alias": "breakfast_brunch", "title": "Breakfast & Brunch"}], "rating": 4.0, "coordinates": {"latitude": 37.9543, "longitude": -122.54803}, "transactions": ["delivery"], "price": "$$", "location": {"address1": "848 College Ave", "address2": "", "address3": "", "city": "Kentfield", "zip_code": "94904", "country": "US", "state": "CA", "display_address": ["848 College Ave", "Kentfield, CA 94904"]}, "phone": "+14154590291", "display_phone": "(415) 459-0291", "distance": 15391.066140164847}, {"id": "wE9P7PpIqjhcUCBZt2CFCA", "alias": "mamis-crunch-novato", "name": "Mami's Crunch", "image_url": "https://s3-media2.fl.yelpcdn.com/bphoto/qt8WqLieB9PPm-GU5AYgag/o.jpg", "is_closed": false, "url": "https://www.yelp.com/biz/mamis-crunch-novato?adjust_creative=K_rJo7VUP5JRiFo1Dydvmw&utm_campaign=yelp_api_v3&utm_medium=api_v3_business_search&utm_source=K_rJo7VUP5JRiFo1Dydvmw", "review_count": 2, "categories": [{"alias": "gluten_free", "title": "Gluten-Free"}], "rating": 4.5, "coordinates": {"latitude": 38.06978, "longitude": -122.53707}, "transactions": [], "location": {"address1": "", "address2": "", "address3": "", "city": "Novato", "zip_code": "94949", "country": "US", "state": "CA", "display_address": ["Novato, CA 94949"]}, "phone": "+14153827832", "display_phone": "(415) 382-7832", "distance": 6279.944615908448}, {"id": "LkZRPGk5oTv-T6uB2Gi7NA", "alias": "ihop-novato-3", "name": "IHOP", "image_url": "https://s3-media4.fl.yelpcdn.com/bphoto/flV1Di8mXhQJwMxgqdZH0Q/o.jpg", "is_closed": false, "url": "https://www.yelp.com/biz/ihop-novato-3?adjust_creative=K_rJo7VUP5JRiFo1Dydvmw&utm_campaign=yelp_api_v3&utm_medium=api_v3_business_search&utm_source=K_rJo7VUP5JRiFo1Dydvmw", "review_count": 60, "categories": [{"alias": "breakfast_brunch", "title": "Breakfast & Brunch"}, {"alias": "tradamerican", "title": "American (Traditional)"}, {"alias": "burgers", "title": "Burgers"}], "rating": 2.5, "coordinates": {"latitude": 38.0907591, "longitude": -122.5560841}, "transactions": [], "price": "$$", "location": {"address1": "144 Vintage Way", "address2": "", "address3": "", "city": "Novato", "zip_code": "94945", "country": "US", "state": "CA", "display_address": ["144 Vintage Way", "Novato, CA 94945"]}, "phone": "+14158922232", "display_phone": "(415) 892-2232", "distance": 621.4124006584732}, {"id": "eF3-jiMmuXRNrNtO7-jR4Q", "alias": "indian-valley-golf-club-novato", "name": "Indian Valley Golf Club", "image_url": "https://s3-media1.fl.yelpcdn.com/bphoto/eywKJgSqw-x3ETBokHDVig/o.jpg", "is_closed": false, "url": "https://www.yelp.com/biz/indian-valley-golf-club-novato?adjust_creative=K_rJo7VUP5JRiFo1Dydvmw&utm_campaign=yelp_api_v3&utm_medium=api_v3_business_search&utm_source=K_rJo7VUP5JRiFo1Dydvmw", "review_count": 55, "categories": [{"alias": "golf", "title": "Golf"}, {"alias": "newamerican", "title": "American (New)"}], "rating": 3.5, "coordinates": {"latitude": 38.109531, "longitude": -122.640222}, "transactions": [], "price": "$$$", "location": {"address1": "3035 Novato Blvd", "address2": "", "address3": "", "city": "Novato", "zip_code": "94947", "country": "US", "state": "CA", "display_address": ["3035 Novato Blvd", "Novato, CA 94947"]}, "phone": "+14158971118", "display_phone": "(415) 897-1118", "distance": 7096.819408343103}, {"id": "SCuwjHKyUHwDvvU2HkFYLg", "alias": "forrest-fire-bbq-san-rafael-2", "name": "Forrest Fire BBQ", "image_url": "https://s3-media4.fl.yelpcdn.com/bphoto/5xHEHbMD3YZlqQZhxb2wtQ/o.jpg", "is_closed": false, "url": "https://www.yelp.com/biz/forrest-fire-bbq-san-rafael-2?adjust_creative=K_rJo7VUP5JRiFo1Dydvmw&utm_campaign=yelp_api_v3&utm_medium=api_v3_business_search&utm_source=K_rJo7VUP5JRiFo1Dydvmw", "review_count": 1, "categories": [{"alias": "catering", "title": "Caterers"}, {"alias": "bbq", "title": "Barbeque"}], "rating": 5.0, "coordinates": {"latitude": 37.96445, "longitude": -122.50576}, "transactions": [], "location": {"address1": null, "address2": null, "address3": "", "city": "San Rafael", "zip_code": "94901", "country": "US", "state": "CA", "display_address": ["San Rafael, CA 94901"]}, "phone": "+16288003473", "display_phone": "(628) 800-3473", "distance": 15063.222043965527}, {"id": "C-NpIPym3h2WqP8z-8vztA", "alias": "taqueria-la-fiesta-novato", "name": "Taqueria La Fiesta", "image_url": "https://s3-media1.fl.yelpcdn.com/bphoto/mI_1ITXyN50Qdc-emrX6Lw/o.jpg", "is_closed": false, "url": "https://www.yelp.com/biz/taqueria-la-fiesta-novato?adjust_creative=K_rJo7VUP5JRiFo1Dydvmw&utm_campaign=yelp_api_v3&utm_medium=api_v3_business_search&utm_source=K_rJo7VUP5JRiFo1Dydvmw", "review_count": 42, "categories": [{"alias": "mexican", "title": "Mexican"}], "rating": 2.0, "coordinates": {"latitude": 38.065359, "longitude": -122.539064}, "transactions": [], "price": "$", "location": {"address1": "524 Alameda Del Prado", "address2": "", "address3": "", "city": "Novato", "zip_code": "94949", "country": "US", "state": "CA", "display_address": ["524 Alameda Del Prado", "Novato, CA 94949"]}, "phone": "+14158830340", "display_phone": "(415) 883-0340", "distance": 3617.8992566378947}, {"id": "iKjVJbtz2BgN-fEtCoIuHg", "alias": "panera-bread-san-rafael", "name": "Panera Bread", "image_url": "https://s3-media2.fl.yelpcdn.com/bphoto/Nx2SQromKu1fI1jibRfDkw/o.jpg", "is_closed": false, "url": "https://www.yelp.com/biz/panera-bread-san-rafael?adjust_creative=K_rJo7VUP5JRiFo1Dydvmw&utm_campaign=yelp_api_v3&utm_medium=api_v3_business_search&utm_source=K_rJo7VUP5JRiFo1Dydvmw", "review_count": 175, "categories": [{"alias": "sandwiches", "title": "Sandwiches"}, {"alias": "salad", "title": "Salad"}, {"alias": "soup", "title": "Soup"}], "rating": 3.0, "coordinates": {"latitude": 38.0040340331147, "longitude": -122.54525934731}, "transactions": ["delivery"], "price": "$$", "location": {"address1": "5800 Northgate Dr", "address2": "Ste 131", "address3": "", "city": "San Rafael", "zip_code": "94903", "country": "US", "state": "CA", "display_address": ["5800 Northgate Dr", "Ste 131", "San Rafael, CA 94903"]}, "phone": "+14154440734", "display_phone": "(415) 444-0734", "distance": 9932.892627332889}, {"id": "OMv23uJQrnWcU4uTH5CVrw", "alias": "stefanos-solar-pizza-san-rafael", "name": "Stefano's Solar Pizza", "image_url": "https://s3-media3.fl.yelpcdn.com/bphoto/9tz4gcwr2kYRXlFcpUPrgQ/o.jpg", "is_closed": false, "url": "https://www.yelp.com/biz/stefanos-solar-pizza-san-rafael?adjust_creative=K_rJo7VUP5JRiFo1Dydvmw&utm_campaign=yelp_api_v3&utm_medium=api_v3_business_search&utm_source=K_rJo7VUP5JRiFo1Dydvmw", "review_count": 31, "categories": [{"alias": "pizza", "title": "Pizza"}, {"alias": "italian", "title": "Italian"}], "rating": 4.0, "coordinates": {"latitude": 38.00463, "longitude": -122.54071}, "transactions": ["pickup", "delivery"], "location": {"address1": "424 Las Gallinas Ave", "address2": "", "address3": null, "city": "San Rafael", "zip_code": "94903", "country": "US", "state": "CA", "display_address": ["424 Las Gallinas Ave", "San Rafael, CA 94903"]}, "phone": "+14154726277", "display_phone": "(415) 472-6277", "distance": 9934.719815237208}, {"id": "g8hnvgklPjKGYxytF5e7zQ", "alias": "tony-tutto-pizza-ross", "name": "Tony Tutto Pizza", "image_url": "https://s3-media4.fl.yelpcdn.com/bphoto/EGzyAqWeeOagkSlRN_HEtA/o.jpg", "is_closed": false, "url": "https://www.yelp.com/biz/tony-tutto-pizza-ross?adjust_creative=K_rJo7VUP5JRiFo1Dydvmw&utm_campaign=yelp_api_v3&utm_medium=api_v3_business_search&utm_source=K_rJo7VUP5JRiFo1Dydvmw", "review_count": 52, "categories": [{"alias": "pizza", "title": "Pizza"}], "rating": 4.5, "coordinates": {"latitude": 37.9604045951378, "longitude": -122.555722864547}, "transactions": ["delivery"], "price": "$$", "location": {"address1": "16 Ross Common", "address2": "", "address3": null, "city": "Ross", "zip_code": "94957", "country": "US", "state": "CA", "display_address": ["16 Ross Common", "Ross, CA 94957"]}, "phone": "+14153838646", "display_phone": "(415) 383-8646", "distance": 14684.780284192479}, {"id": "NqkV8fYIj4635k9AJGd18w", "alias": "lotus-cuisine-of-india-san-rafael", "name": "Lotus Cuisine of India", "image_url": "https://s3-media4.fl.yelpcdn.com/bphoto/uVnexWSStKaBWCOlT10hTw/o.jpg", "is_closed": false, "url": "https://www.yelp.com/biz/lotus-cuisine-of-india-san-rafael?adjust_creative=K_rJo7VUP5JRiFo1Dydvmw&utm_campaign=yelp_api_v3&utm_medium=api_v3_business_search&utm_source=K_rJo7VUP5JRiFo1Dydvmw", "review_count": 615, "categories": [{"alias": "indpak", "title": "Indian"}, {"alias": "vegetarian", "title": "Vegetarian"}, {"alias": "gluten_free", "title": "Gluten-Free"}], "rating": 4.0, "coordinates": {"latitude": 37.9727, "longitude": -122.52288}, "transactions": ["delivery"], "price": "$$", "location": {"address1": "704 4th St", "address2": "", "address3": "", "city": "San Rafael", "zip_code": "94901", "country": "US", "state": "CA", "display_address": ["704 4th St", "San Rafael, CA 94901"]}, "phone": "+14154565808", "display_phone": "(415) 456-5808", "distance": 13747.614466237215}, {"id": "clwxCGMJzTcw0VME8RivOw", "alias": "restaurant-picco-larkspur", "name": "Restaurant Picco", "image_url": "https://s3-media1.fl.yelpcdn.com/bphoto/725YuHZixlVVOGxhmUgL3w/o.jpg", "is_closed": false, "url": "https://www.yelp.com/biz/restaurant-picco-larkspur?adjust_creative=K_rJo7VUP5JRiFo1Dydvmw&utm_campaign=yelp_api_v3&utm_medium=api_v3_business_search&utm_source=K_rJo7VUP5JRiFo1Dydvmw", "review_count": 629, "categories": [{"alias": "italian", "title": "Italian"}, {"alias": "newamerican", "title": "American (New)"}, {"alias": "cocktailbars", "title": "Cocktail Bars"}], "rating": 4.0, "coordinates": {"latitude": 37.93395, "longitude": -122.53559}, "transactions": ["delivery"], "price": "$$$", "location": {"address1": "320 Magnolia Ave", "address2": "", "address3": "", "city": "Larkspur", "zip_code": "94939", "country": "US", "state": "CA", "display_address": ["320 Magnolia Ave", "Larkspur, CA 94939"]}, "phone": "+14159240300", "display_phone": "(415) 924-0300", "distance": 17758.146837105647}, {"id": "XqlkcD_zTirBYcAfuFD5JA", "alias": "buckhorn-petaluma", "name": "Buckhorn", "image_url": "https://s3-media2.fl.yelpcdn.com/bphoto/NJeulAC5Fuwz5DVtvFMHrw/o.jpg", "is_closed": false, "url": "https://www.yelp.com/biz/buckhorn-petaluma?adjust_creative=K_rJo7VUP5JRiFo1Dydvmw&utm_campaign=yelp_api_v3&utm_medium=api_v3_business_search&utm_source=K_rJo7VUP5JRiFo1Dydvmw", "review_count": 33, "categories": [{"alias": "bars", "title": "Bars"}, {"alias": "tradamerican", "title": "American (Traditional)"}], "rating": 4.5, "coordinates": {"latitude": 38.23058, "longitude": -122.63088}, "transactions": [], "price": "$", "location": {"address1": "615 Petaluma Blvd S", "address2": "", "address3": "", "city": "Petaluma", "zip_code": "94952", "country": "US", "state": "CA", "display_address": ["615 Petaluma Blvd S", "Petaluma, CA 94952"]}, "phone": "+17077630365", "display_phone": "(707) 763-0365", "distance": 16495.605398215863}, {"id": "SBc63aUpbIc1T-iYyZRcHw", "alias": "original-buffalo-wings-san-rafael", "name": "Original Buffalo Wings", "image_url": "https://s3-media3.fl.yelpcdn.com/bphoto/fNGD3oZ-RgRRdqkcR87Dag/o.jpg", "is_closed": false, "url": "https://www.yelp.com/biz/original-buffalo-wings-san-rafael?adjust_creative=K_rJo7VUP5JRiFo1Dydvmw&utm_campaign=yelp_api_v3&utm_medium=api_v3_business_search&utm_source=K_rJo7VUP5JRiFo1Dydvmw", "review_count": 117, "categories": [{"alias": "tradamerican", "title": "American (Traditional)"}, {"alias": "chicken_wings", "title": "Chicken Wings"}], "rating": 3.0, "coordinates": {"latitude": 37.97307, "longitude": -122.52861}, "transactions": ["pickup", "delivery"], "price": "$", "location": {"address1": "1119 4th St", "address2": "", "address3": "", "city": "San Rafael", "zip_code": "94901", "country": "US", "state": "CA", "display_address": ["1119 4th St", "San Rafael, CA 94901"]}, "phone": "+14152589202", "display_phone": "(415) 258-9202", "distance": 13584.582501481244}, {"id": "utjG2KZ7_Rvyo-bj4ApZLA", "alias": "san-geronimo-restaurant-and-bar-san-geronimo", "name": "San Geronimo Restaurant & Bar", "image_url": "", "is_closed": false, "url": "https://www.yelp.com/biz/san-geronimo-restaurant-and-bar-san-geronimo?adjust_creative=K_rJo7VUP5JRiFo1Dydvmw&utm_campaign=yelp_api_v3&utm_medium=api_v3_business_search&utm_source=K_rJo7VUP5JRiFo1Dydvmw", "review_count": 5, "categories": [{"alias": "tradamerican", "title": "American (Traditional)"}, {"alias": "venues", "title": "Venues & Event Spaces"}], "rating": 4.0, "coordinates": {"latitude": 38.015635, "longitude": -122.661358}, "transactions": [], "price": "$$$", "location": {"address1": "5800 Sir Francis Drake Blvd", "address2": "", "address3": "", "city": "San Geronimo", "zip_code": "94963", "country": "US", "state": "CA", "display_address": ["5800 Sir Francis Drake Blvd", "San Geronimo, CA 94963"]}, "phone": "+14154884030", "display_phone": "(415) 488-4030", "distance": 12179.26880080104}, {"id": "1N2_Jf7jlF3YZLVO_ZV-fA", "alias": "rnoh-thai-larkspur", "name": "R'noh Thai", "image_url": "https://s3-media2.fl.yelpcdn.com/bphoto/007v8qOVToN_U42Mm0dGsQ/o.jpg", "is_closed": false, "url": "https://www.yelp.com/biz/rnoh-thai-larkspur?adjust_creative=K_rJo7VUP5JRiFo1Dydvmw&utm_campaign=yelp_api_v3&utm_medium=api_v3_business_search&utm_source=K_rJo7VUP5JRiFo1Dydvmw", "review_count": 320, "categories": [{"alias": "thai", "title": "Thai"}, {"alias": "salad", "title": "Salad"}, {"alias": "noodles", "title": "Noodles"}], "rating": 4.0, "coordinates": {"latitude": 37.94684, "longitude": -122.54574}, "transactions": ["delivery"], "price": "$$", "location": {"address1": "1000 Magnolia Ave", "address2": null, "address3": "", "city": "Larkspur", "zip_code": "94939", "country": "US", "state": "CA", "display_address": ["1000 Magnolia Ave", "Larkspur, CA 94939"]}, "phone": "+14159250599", "display_phone": "(415) 925-0599", "distance": 16247.537728093379}, {"id": "g_706qI6N3n1q_cEiBnSIA", "alias": "hectors-pizza-petaluma", "name": "Hector's Pizza", "image_url": "https://s3-media2.fl.yelpcdn.com/bphoto/xDf3jYGRRpzr1EFFq9nsDw/o.jpg", "is_closed": false, "url": "https://www.yelp.com/biz/hectors-pizza-petaluma?adjust_creative=K_rJo7VUP5JRiFo1Dydvmw&utm_campaign=yelp_api_v3&utm_medium=api_v3_business_search&utm_source=K_rJo7VUP5JRiFo1Dydvmw", "review_count": 170, "categories": [{"alias": "pizza", "title": "Pizza"}, {"alias": "italian", "title": "Italian"}], "rating": 4.5, "coordinates": {"latitude": 38.2353096, "longitude": -122.6020203}, "transactions": [], "price": "$$", "location": {"address1": "1420 S McDowell Blvd", "address2": null, "address3": "", "city": "Petaluma", "zip_code": "94954", "country": "US", "state": "CA", "display_address": ["1420 S McDowell Blvd", "Petaluma, CA 94954"]}, "phone": "+17077651800", "display_phone": "(707) 765-1800", "distance": 16273.544450596906}, {"id": "M3Hnzun4bvzVbp2paBFXUw", "alias": "chili-joes-petaluma", "name": "Chili Joe's", "image_url": "https://s3-media2.fl.yelpcdn.com/bphoto/t_1fHpcqQuVQ4QhH1ZZLoA/o.jpg", "is_closed": false, "url": "https://www.yelp.com/biz/chili-joes-petaluma?adjust_creative=K_rJo7VUP5JRiFo1Dydvmw&utm_campaign=yelp_api_v3&utm_medium=api_v3_business_search&utm_source=K_rJo7VUP5JRiFo1Dydvmw", "review_count": 60, "categories": [{"alias": "burgers", "title": "Burgers"}, {"alias": "hotdog", "title": "Hot Dogs"}, {"alias": "tradamerican", "title": "American (Traditional)"}], "rating": 4.5, "coordinates": {"latitude": 38.23157, "longitude": -122.63518}, "transactions": [], "price": "$", "location": {"address1": "312 Petaluma Blvd S", "address2": "", "address3": null, "city": "Petaluma", "zip_code": "94952", "country": "US", "state": "CA", "display_address": ["312 Petaluma Blvd S", "Petaluma, CA 94952"]}, "phone": "+17079717537", "display_phone": "(707) 971-7537", "distance": 16746.27291829342}, {"id": "7wBGBSmJ0GI6hJILhR2qvA", "alias": "mi-pueblo-san-rafael", "name": "Mi Pueblo", "image_url": "https://s3-media4.fl.yelpcdn.com/bphoto/JSdKKbDNH_nT0OU7ei7-Ig/o.jpg", "is_closed": false, "url": "https://www.yelp.com/biz/mi-pueblo-san-rafael?adjust_creative=K_rJo7VUP5JRiFo1Dydvmw&utm_campaign=yelp_api_v3&utm_medium=api_v3_business_search&utm_source=K_rJo7VUP5JRiFo1Dydvmw", "review_count": 65, "categories": [{"alias": "mexican", "title": "Mexican"}, {"alias": "bars", "title": "Bars"}], "rating": 3.0, "coordinates": {"latitude": 38.00331, "longitude": -122.54303}, "transactions": ["pickup", "delivery"], "price": "$$", "location": {"address1": "5800 Northgate Dr", "address2": "Ste 138", "address3": null, "city": "San Rafael", "zip_code": "94903", "country": "US", "state": "CA", "display_address": ["5800 Northgate Dr", "Ste 138", "San Rafael, CA 94903"]}, "phone": "+14152957373", "display_phone": "(415) 295-7373", "distance": 9927.015631477921}, {"id": "f3cI5cLOmn9g4Qy3o5Jbew", "alias": "the-cheese-steak-shop-petaluma", "name": "The Cheese Steak Shop", "image_url": "https://s3-media2.fl.yelpcdn.com/bphoto/HG_lI7vPt9nuyFHq8HijUw/o.jpg", "is_closed": false, "url": "https://www.yelp.com/biz/the-cheese-steak-shop-petaluma?adjust_creative=K_rJo7VUP5JRiFo1Dydvmw&utm_campaign=yelp_api_v3&utm_medium=api_v3_business_search&utm_source=K_rJo7VUP5JRiFo1Dydvmw", "review_count": 80, "categories": [{"alias": "steak", "title": "Steakhouses"}, {"alias": "cheesesteaks", "title": "Cheesesteaks"}, {"alias": "sandwiches", "title": "Sandwiches"}], "rating": 3.5, "coordinates": {"latitude": 38.2437525, "longitude": -122.63088}, "transactions": ["pickup", "delivery"], "price": "$", "location": {"address1": "401 Kenilworth Dr", "address2": "Ste 930", "address3": "", "city": "Petaluma", "zip_code": "94952", "country": "US", "state": "CA", "display_address": ["401 Kenilworth Dr", "Ste 930", "Petaluma, CA 94952"]}, "phone": "+17077634900", "display_phone": "(707) 763-4900", "distance": 17874.276451496247}, {"id": "h-ebiiISTvkcwiANGS7oTg", "alias": "extreme-pizza-novato-novato", "name": "Extreme Pizza - Novato", "image_url": "https://s3-media1.fl.yelpcdn.com/bphoto/QqLkLy0gFrDwNfmBKGpLFw/o.jpg", "is_closed": false, "url": "https://www.yelp.com/biz/extreme-pizza-novato-novato?adjust_creative=K_rJo7VUP5JRiFo1Dydvmw&utm_campaign=yelp_api_v3&utm_medium=api_v3_business_search&utm_source=K_rJo7VUP5JRiFo1Dydvmw", "review_count": 108, "categories": [{"alias": "pizza", "title": "Pizza"}, {"alias": "salad", "title": "Salad"}, {"alias": "sandwiches", "title": "Sandwiches"}], "rating": 3.5, "coordinates": {"latitude": 38.092434, "longitude": -122.554339}, "transactions": ["pickup", "delivery"], "price": "$$", "location": {"address1": "104 Vintage Way", "address2": "Ste A-9", "address3": "", "city": "Novato", "zip_code": "94945", "country": "US", "state": "CA", "display_address": ["104 Vintage Way", "Ste A-9", "Novato, CA 94945"]}, "phone": "+14158986575", "display_phone": "(415) 898-6575", "distance": 679.5027791028325}, {"id": "VnUmTgNBkY-wuhHgLlb-ZQ", "alias": "le-chalet-basque-san-rafael", "name": "Le Chalet Basque", "image_url": "https://s3-media2.fl.yelpcdn.com/bphoto/daCESoe_6HLbAu90r3gLog/o.jpg", "is_closed": false, "url": "https://www.yelp.com/biz/le-chalet-basque-san-rafael?adjust_creative=K_rJo7VUP5JRiFo1Dydvmw&utm_campaign=yelp_api_v3&utm_medium=api_v3_business_search&utm_source=K_rJo7VUP5JRiFo1Dydvmw", "review_count": 213, "categories": [{"alias": "french", "title": "French"}, {"alias": "basque", "title": "Basque"}, {"alias": "bars", "title": "Bars"}], "rating": 4.0, "coordinates": {"latitude": 38.009585, "longitude": -122.5196983}, "transactions": ["delivery"], "price": "$$", "location": {"address1": "405 N San Pedro Rd", "address2": "", "address3": "", "city": "San Rafael", "zip_code": "94903", "country": "US", "state": "CA", "display_address": ["405 N San Pedro Rd", "San Rafael, CA 94903"]}, "phone": "+14154791070", "display_phone": "(415) 479-1070", "distance": 9926.160487197732}, {"id": "fdYBdj7bfAVL_La-bgS4kw", "alias": "moseleys-sports-bar-corte-madera", "name": "Moseley's Sports Bar", "image_url": "https://s3-media3.fl.yelpcdn.com/bphoto/2I7OK0-LtsOae63ykNMwbg/o.jpg", "is_closed": false, "url": "https://www.yelp.com/biz/moseleys-sports-bar-corte-madera?adjust_creative=K_rJo7VUP5JRiFo1Dydvmw&utm_campaign=yelp_api_v3&utm_medium=api_v3_business_search&utm_source=K_rJo7VUP5JRiFo1Dydvmw", "review_count": 67, "categories": [{"alias": "sportsbars", "title": "Sports Bars"}, {"alias": "salad", "title": "Salad"}, {"alias": "pizza", "title": "Pizza"}], "rating": 3.5, "coordinates": {"latitude": 37.9359667311328, "longitude": -122.517983950675}, "transactions": ["pickup", "delivery"], "price": "$$", "location": {"address1": "55 Tamal Vista Blvd", "address2": "", "address3": null, "city": "Corte Madera", "zip_code": "94925", "country": "US", "state": "CA", "display_address": ["55 Tamal Vista Blvd", "Corte Madera, CA 94925"]}, "phone": "+14157047437", "display_phone": "(415) 704-7437", "distance": 17815.82117034897}, {"id": "aSpIAmKGU9Pk20PCTxmhoQ", "alias": "celias-mexican-restaurant-san-rafael-san-rafael", "name": "Celia's Mexican Restaurant - San Rafael", "image_url": "https://s3-media2.fl.yelpcdn.com/bphoto/Ds1NH26JUuPL2uy8uy5XEQ/o.jpg", "is_closed": false, "url": "https://www.yelp.com/biz/celias-mexican-restaurant-san-rafael-san-rafael?adjust_creative=K_rJo7VUP5JRiFo1Dydvmw&utm_campaign=yelp_api_v3&utm_medium=api_v3_business_search&utm_source=K_rJo7VUP5JRiFo1Dydvmw", "review_count": 220, "categories": [{"alias": "mexican", "title": "Mexican"}], "rating": 3.5, "coordinates": {"latitude": 37.963, "longitude": -122.50918}, "transactions": ["delivery"], "price": "$$", "location": {"address1": "1 Vivian St", "address2": "", "address3": "", "city": "San Rafael", "zip_code": "94901", "country": "US", "state": "CA", "display_address": ["1 Vivian St", "San Rafael, CA 94901"]}, "phone": "+14154568190", "display_phone": "(415) 456-8190", "distance": 15137.386217798747}, {"id": "JW-AguMPFjjE5Uhpd3mITg", "alias": "ghiringhellis-pizzeria-fairfax", "name": "Ghiringhelli's Pizzeria", "image_url": "https://s3-media2.fl.yelpcdn.com/bphoto/8UVxuMLJ6C7KK_DB0j6FAA/o.jpg", "is_closed": false, "url": "https://www.yelp.com/biz/ghiringhellis-pizzeria-fairfax?adjust_creative=K_rJo7VUP5JRiFo1Dydvmw&utm_campaign=yelp_api_v3&utm_medium=api_v3_business_search&utm_source=K_rJo7VUP5JRiFo1Dydvmw", "review_count": 127, "categories": [{"alias": "pizza", "title": "Pizza"}], "rating": 3.5, "coordinates": {"latitude": 37.9869510332558, "longitude": -122.589150201152}, "transactions": ["delivery"], "price": "$$", "location": {"address1": "45 Broadway Blvd", "address2": "", "address3": "", "city": "Fairfax", "zip_code": "94930", "country": "US", "state": "CA", "display_address": ["45 Broadway Blvd", "Fairfax, CA 94930"]}, "phone": "+14154537472", "display_phone": "(415) 453-7472", "distance": 11959.22882847864}, {"id": "PMKEbFhBvrydNHYHozcufQ", "alias": "sunrise-donuts-san-rafael", "name": "Sunrise Donuts", "image_url": "https://s3-media1.fl.yelpcdn.com/bphoto/9kvof05YMjbikWTWX0W7DQ/o.jpg", "is_closed": false, "url": "https://www.yelp.com/biz/sunrise-donuts-san-rafael?adjust_creative=K_rJo7VUP5JRiFo1Dydvmw&utm_campaign=yelp_api_v3&utm_medium=api_v3_business_search&utm_source=K_rJo7VUP5JRiFo1Dydvmw", "review_count": 23, "categories": [{"alias": "donuts", "title": "Donuts"}, {"alias": "chinese", "title": "Chinese"}, {"alias": "coffee", "title": "Coffee & Tea"}], "rating": 4.0, "coordinates": {"latitude": 37.964336, "longitude": -122.508163}, "transactions": [], "price": "$", "location": {"address1": "175 Belvedere St", "address2": "", "address3": "", "city": "San Rafael", "zip_code": "94901", "country": "US", "state": "CA", "display_address": ["175 Belvedere St", "San Rafael, CA 94901"]}, "phone": "+14157210146", "display_phone": "(415) 721-0146", "distance": 15031.034878644661}, {"id": "6MRlLLzZECnsMwudasetmA", "alias": "tommys-asian-bistro-and-grill-san-rafael", "name": "Tommy's Asian Bistro and Grill", "image_url": "https://s3-media2.fl.yelpcdn.com/bphoto/woZ_9l6guuT_ADzoGtn41w/o.jpg", "is_closed": false, "url": "https://www.yelp.com/biz/tommys-asian-bistro-and-grill-san-rafael?adjust_creative=K_rJo7VUP5JRiFo1Dydvmw&utm_campaign=yelp_api_v3&utm_medium=api_v3_business_search&utm_source=K_rJo7VUP5JRiFo1Dydvmw", "review_count": 142, "categories": [{"alias": "asianfusion", "title": "Asian Fusion"}, {"alias": "chinese", "title": "Chinese"}, {"alias": "thai", "title": "Thai"}], "rating": 3.5, "coordinates": {"latitude": 37.969477, "longitude": -122.51555}, "transactions": ["pickup"], "price": "$$", "location": {"address1": "227 3rd St", "address2": "", "address3": "", "city": "San Rafael", "zip_code": "94901", "country": "US", "state": "CA", "display_address": ["227 3rd St", "San Rafael, CA 94901"]}, "phone": "+14154536988", "display_phone": "(415) 453-6988", "distance": 14260.667788072458}, {"id": "z9ojAvaoescNqJdfzAiM-g", "alias": "a-piece-of-cake-and-confections-novato", "name": "A Piece of Cake and Confections", "image_url": "https://s3-media3.fl.yelpcdn.com/bphoto/n85A9OE9trcDkGAsIajsnA/o.jpg", "is_closed": false, "url": "https://www.yelp.com/biz/a-piece-of-cake-and-confections-novato?adjust_creative=K_rJo7VUP5JRiFo1Dydvmw&utm_campaign=yelp_api_v3&utm_medium=api_v3_business_search&utm_source=K_rJo7VUP5JRiFo1Dydvmw", "review_count": 17, "categories": [{"alias": "desserts", "title": "Desserts"}, {"alias": "cupcakes", "title": "Cupcakes"}, {"alias": "catering", "title": "Caterers"}], "rating": 4.5, "coordinates": {"latitude": 38.099022, "longitude": -122.57126}, "transactions": ["delivery"], "price": "$", "location": {"address1": "1555 S Novato Blvd", "address2": "", "address3": "", "city": "Novato", "zip_code": "94947", "country": "US", "state": "CA", "display_address": ["1555 S Novato Blvd", "Novato, CA 94947"]}, "phone": "+14156400003", "display_phone": "(415) 640-0003", "distance": 1090.305750895452}, {"id": "i54f7Y-AymvddxMASH42RA", "alias": "same-day-seafood-san-rafael", "name": "Same Day Seafood", "image_url": "https://s3-media3.fl.yelpcdn.com/bphoto/w6dpcUy2-wEgdIcSbdCc3A/o.jpg", "is_closed": false, "url": "https://www.yelp.com/biz/same-day-seafood-san-rafael?adjust_creative=K_rJo7VUP5JRiFo1Dydvmw&utm_campaign=yelp_api_v3&utm_medium=api_v3_business_search&utm_source=K_rJo7VUP5JRiFo1Dydvmw", "review_count": 11, "categories": [{"alias": "seafoodmarkets", "title": "Seafood Markets"}], "rating": 5.0, "coordinates": {"latitude": 37.9968390682237, "longitude": -122.532387119049}, "transactions": [], "price": "$$", "location": {"address1": "Peter Behr Dr", "address2": "", "address3": "", "city": "San Rafael", "zip_code": "94903", "country": "US", "state": "CA", "display_address": ["Peter Behr Dr", "San Rafael, CA 94903"]}, "phone": "+14159447871", "display_phone": "(415) 944-7871", "distance": 10936.902145655815}, {"id": "9N6HWNPrXyunjgRcUmGTjg", "alias": "panda-express-san-rafael", "name": "Panda Express", "image_url": "https://s3-media2.fl.yelpcdn.com/bphoto/2mrm2dBoLcyGQ4xPMojUEA/o.jpg", "is_closed": false, "url": "https://www.yelp.com/biz/panda-express-san-rafael?adjust_creative=K_rJo7VUP5JRiFo1Dydvmw&utm_campaign=yelp_api_v3&utm_medium=api_v3_business_search&utm_source=K_rJo7VUP5JRiFo1Dydvmw", "review_count": 68, "categories": [{"alias": "chinese", "title": "Chinese"}, {"alias": "hotdogs", "title": "Fast Food"}], "rating": 2.5, "coordinates": {"latitude": 38.0044902642533, "longitude": -122.544765472412}, "transactions": [], "price": "$", "location": {"address1": "5800 Northgate Dr", "address2": "", "address3": "", "city": "San Rafael", "zip_code": "94903", "country": "US", "state": "CA", "display_address": ["5800 Northgate Dr", "San Rafael, CA 94903"]}, "phone": "+14154792082", "display_phone": "(415) 479-2082", "distance": 9889.273338774354}, {"id": "Yy2JnOzJLkpJA8OBxpl6aw", "alias": "tacos-mendoza-san-rafael", "name": "Tacos Mendoza", "image_url": "https://s3-media2.fl.yelpcdn.com/bphoto/J6HWt5dRonEwx9Vq1QELjg/o.jpg", "is_closed": false, "url": "https://www.yelp.com/biz/tacos-mendoza-san-rafael?adjust_creative=K_rJo7VUP5JRiFo1Dydvmw&utm_campaign=yelp_api_v3&utm_medium=api_v3_business_search&utm_source=K_rJo7VUP5JRiFo1Dydvmw", "review_count": 2, "categories": [{"alias": "foodtrucks", "title": "Food Trucks"}, {"alias": "mexican", "title": "Mexican"}], "rating": 4.5, "coordinates": {"latitude": 37.97101, "longitude": -122.53098}, "transactions": [], "location": {"address1": "", "address2": "", "address3": null, "city": "San Rafael", "zip_code": "94901", "country": "US", "state": "CA", "display_address": ["San Rafael, CA 94901"]}, "phone": "+14157606243", "display_phone": "(415) 760-6243", "distance": 15063.222043965527}, {"id": "_RpKtXboyemrxaF4x3VTsw", "alias": "browns-binyerd-novato", "name": "Brown's Binyerd", "image_url": "https://s3-media2.fl.yelpcdn.com/bphoto/bFFBCI6Z1Pv4KxBqI9ajeg/o.jpg", "is_closed": false, "url": "https://www.yelp.com/biz/browns-binyerd-novato?adjust_creative=K_rJo7VUP5JRiFo1Dydvmw&utm_campaign=yelp_api_v3&utm_medium=api_v3_business_search&utm_source=K_rJo7VUP5JRiFo1Dydvmw", "review_count": 24, "categories": [{"alias": "tradamerican", "title": "American (Traditional)"}, {"alias": "sportsbars", "title": "Sports Bars"}, {"alias": "poolhalls", "title": "Pool Halls"}], "rating": 3.0, "coordinates": {"latitude": 38.1082899, "longitude": -122.57126}, "transactions": [], "price": "$", "location": {"address1": "1009 1st St", "address2": "", "address3": "", "city": "Novato", "zip_code": "94945", "country": "US", "state": "CA", "display_address": ["1009 1st St", "Novato, CA 94945"]}, "phone": "+14158971925", "display_phone": "(415) 897-1925", "distance": 1914.471761450686}, {"id": "Esc6bLPTyHEqss4DJrl-IA", "alias": "cheese-steak-shop-larkspur", "name": "Cheese Steak Shop", "image_url": "https://s3-media2.fl.yelpcdn.com/bphoto/AYM7nrze8-iRzK4BlO49sw/o.jpg", "is_closed": false, "url": "https://www.yelp.com/biz/cheese-steak-shop-larkspur?adjust_creative=K_rJo7VUP5JRiFo1Dydvmw&utm_campaign=yelp_api_v3&utm_medium=api_v3_business_search&utm_source=K_rJo7VUP5JRiFo1Dydvmw", "review_count": 110, "categories": [{"alias": "sandwiches", "title": "Sandwiches"}], "rating": 3.5, "coordinates": {"latitude": 37.938041, "longitude": -122.533635}, "transactions": ["pickup", "delivery"], "price": "$", "location": {"address1": "596 Magnolia", "address2": "", "address3": "", "city": "Larkspur", "zip_code": "94939", "country": "US", "state": "CA", "display_address": ["596 Magnolia", "Larkspur, CA 94939"]}, "phone": "+14159249000", "display_phone": "(415) 924-9000", "distance": 17341.130337797753}, {"id": "tUfUEy58WkA5TPqQFSnHoQ", "alias": "moonlight-deli-and-coffee-san-rafael", "name": "Moonlight  Deli & Coffee", "image_url": "https://s3-media4.fl.yelpcdn.com/bphoto/NBvMtg-iDH65shUrVoDVSA/o.jpg", "is_closed": false, "url": "https://www.yelp.com/biz/moonlight-deli-and-coffee-san-rafael?adjust_creative=K_rJo7VUP5JRiFo1Dydvmw&utm_campaign=yelp_api_v3&utm_medium=api_v3_business_search&utm_source=K_rJo7VUP5JRiFo1Dydvmw", "review_count": 58, "categories": [{"alias": "delis", "title": "Delis"}, {"alias": "sandwiches", "title": "Sandwiches"}], "rating": 4.5, "coordinates": {"latitude": 37.97387, "longitude": -122.53946}, "transactions": ["delivery"], "price": "$", "location": {"address1": "1815 4th St", "address2": "", "address3": "", "city": "San Rafael", "zip_code": "94901", "country": "US", "state": "CA", "display_address": ["1815 4th St", "San Rafael, CA 94901"]}, "phone": "+14154592835", "display_phone": "(415) 459-2835", "distance": 13325.144945165855}, {"id": "KaH495tE90tKCD3aiRA7EQ", "alias": "andys-local-market-san-rafael", "name": "Andy's Local Market", "image_url": "https://s3-media3.fl.yelpcdn.com/bphoto/FIGpkpNllMrheFQ9polhtw/o.jpg", "is_closed": false, "url": "https://www.yelp.com/biz/andys-local-market-san-rafael?adjust_creative=K_rJo7VUP5JRiFo1Dydvmw&utm_campaign=yelp_api_v3&utm_medium=api_v3_business_search&utm_source=K_rJo7VUP5JRiFo1Dydvmw", "review_count": 106, "categories": [{"alias": "grocery", "title": "Grocery"}, {"alias": "beer_and_wine", "title": "Beer, Wine & Spirits"}, {"alias": "delis", "title": "Delis"}], "rating": 4.5, "coordinates": {"latitude": 37.973234, "longitude": -122.484156}, "transactions": [], "price": "$$", "location": {"address1": "75 Loch Lomond Dr", "address2": "", "address3": "", "city": "San Rafael", "zip_code": "94901", "country": "US", "state": "CA", "display_address": ["75 Loch Lomond Dr", "San Rafael, CA 94901"]}, "phone": "+14154565730", "display_phone": "(415) 456-5730", "distance": 14903.180092632303}, {"id": "ht_ZYFYIgAyeMmTxxJIDhw", "alias": "padoca-foods-san-rafael-2", "name": "Padoca Foods", "image_url": "https://s3-media2.fl.yelpcdn.com/bphoto/LnR9oFIGo8q9O7JahfiZUQ/o.jpg", "is_closed": false, "url": "https://www.yelp.com/biz/padoca-foods-san-rafael-2?adjust_creative=K_rJo7VUP5JRiFo1Dydvmw&utm_campaign=yelp_api_v3&utm_medium=api_v3_business_search&utm_source=K_rJo7VUP5JRiFo1Dydvmw", "review_count": 3, "categories": [{"alias": "bakeries", "title": "Bakeries"}, {"alias": "brazilian", "title": "Brazilian"}, {"alias": "soulfood", "title": "Soul Food"}], "rating": 5.0, "coordinates": {"latitude": 37.9634702, "longitude": -122.5091624}, "transactions": [], "price": "$$", "location": {"address1": "26 Medway Rd", "address2": "Ste 7", "address3": "", "city": "San Rafael", "zip_code": "94903", "country": "US", "state": "CA", "display_address": ["26 Medway Rd", "Ste 7", "San Rafael, CA 94903"]}, "phone": "+14158476057", "display_phone": "(415) 847-6057", "distance": 15064.682934721652}, {"id": "vYQEkaUHu7tPrIZ_6SRBdw", "alias": "bogies-too-san-rafael-2", "name": "Bogie's Too", "image_url": "https://s3-media1.fl.yelpcdn.com/bphoto/fQe20DJsfzW4qYhowVkR2A/o.jpg", "is_closed": false, "url": "https://www.yelp.com/biz/bogies-too-san-rafael-2?adjust_creative=K_rJo7VUP5JRiFo1Dydvmw&utm_campaign=yelp_api_v3&utm_medium=api_v3_business_search&utm_source=K_rJo7VUP5JRiFo1Dydvmw", "review_count": 282, "categories": [{"alias": "breakfast_brunch", "title": "Breakfast & Brunch"}, {"alias": "cafes", "title": "Cafes"}, {"alias": "tradamerican", "title": "American (Traditional)"}], "rating": 4.5, "coordinates": {"latitude": 37.973333, "longitude": -122.531698}, "transactions": ["delivery"], "price": "$$", "location": {"address1": "1335 4th St", "address2": "", "address3": "", "city": "San Rafael", "zip_code": "94901", "country": "US", "state": "CA", "display_address": ["1335 4th St", "San Rafael, CA 94901"]}, "phone": "+14154921530", "display_phone": "(415) 492-1530", "distance": 13501.790561951693}, {"id": "KXvRpkqxZFgUKdbAnIlxEw", "alias": "el-palmar-san-rafael", "name": "El Palmar", "image_url": "https://s3-media3.fl.yelpcdn.com/bphoto/kzeNJtXEXZKv-qtTzza7jw/o.jpg", "is_closed": false, "url": "https://www.yelp.com/biz/el-palmar-san-rafael?adjust_creative=K_rJo7VUP5JRiFo1Dydvmw&utm_campaign=yelp_api_v3&utm_medium=api_v3_business_search&utm_source=K_rJo7VUP5JRiFo1Dydvmw", "review_count": 83, "categories": [{"alias": "mexican", "title": "Mexican"}], "rating": 4.0, "coordinates": {"latitude": 37.96795, "longitude": -122.52368}, "transactions": ["delivery"], "price": "$", "location": {"address1": "757 Lincoln Ave", "address2": "Ste 29", "address3": "", "city": "San Rafael", "zip_code": "94901", "country": "US", "state": "CA", "display_address": ["757 Lincoln Ave", "Ste 29", "San Rafael, CA 94901"]}, "phone": "+14154565178", "display_phone": "(415) 456-5178", "distance": 14245.628047416105}, {"id": "sxQAhtrrGIC9zjSRoumvig", "alias": "water-street-bistro-petaluma", "name": "Water Street Bistro", "image_url": "https://s3-media3.fl.yelpcdn.com/bphoto/cte7lm3gHkdyflbxTa8Btg/o.jpg", "is_closed": false, "url": "https://www.yelp.com/biz/water-street-bistro-petaluma?adjust_creative=K_rJo7VUP5JRiFo1Dydvmw&utm_campaign=yelp_api_v3&utm_medium=api_v3_business_search&utm_source=K_rJo7VUP5JRiFo1Dydvmw", "review_count": 226, "categories": [{"alias": "french", "title": "French"}, {"alias": "breakfast_brunch", "title": "Breakfast & Brunch"}], "rating": 4.5, "coordinates": {"latitude": 38.2342801153826, "longitude": -122.639940440894}, "transactions": [], "price": "$$", "location": {"address1": "100 Petaluma Blvd N", "address2": "Ste 106", "address3": "", "city": "Petaluma", "zip_code": "94952", "country": "US", "state": "CA", "display_address": ["100 Petaluma Blvd N", "Ste 106", "Petaluma, CA 94952"]}, "phone": "+17077639563", "display_phone": "(707) 763-9563", "distance": 17184.24732132945}, {"id": "3NQ_Nu0fE9ANyRWppulq9w", "alias": "tenkyu-san-rafael", "name": "Tenkyu", "image_url": "https://s3-media2.fl.yelpcdn.com/bphoto/EcSZ6v8jnFOvysx9XIvkzg/o.jpg", "is_closed": false, "url": "https://www.yelp.com/biz/tenkyu-san-rafael?adjust_creative=K_rJo7VUP5JRiFo1Dydvmw&utm_campaign=yelp_api_v3&utm_medium=api_v3_business_search&utm_source=K_rJo7VUP5JRiFo1Dydvmw", "review_count": 142, "categories": [{"alias": "sushi", "title": "Sushi Bars"}, {"alias": "japanese", "title": "Japanese"}], "rating": 4.0, "coordinates": {"latitude": 37.97318, "longitude": -122.53121}, "transactions": ["delivery"], "price": "$$", "location": {"address1": "1317 4th St", "address2": "", "address3": "", "city": "San Rafael", "zip_code": "94901", "country": "US", "state": "CA", "display_address": ["1317 4th St", "San Rafael, CA 94901"]}, "phone": "+14154600207", "display_phone": "(415) 460-0207", "distance": 13508.460317997104}, {"id": "4mQJeBmqcMsacMkitgrylw", "alias": "cafe-zazzle-petaluma", "name": "Cafe Zazzle", "image_url": "https://s3-media4.fl.yelpcdn.com/bphoto/tBDRGq4XLmV3tQ6v5bUvrg/o.jpg", "is_closed": false, "url": "https://www.yelp.com/biz/cafe-zazzle-petaluma?adjust_creative=K_rJo7VUP5JRiFo1Dydvmw&utm_campaign=yelp_api_v3&utm_medium=api_v3_business_search&utm_source=K_rJo7VUP5JRiFo1Dydvmw", "review_count": 455, "categories": [{"alias": "newamerican", "title": "American (New)"}, {"alias": "noodles", "title": "Noodles"}, {"alias": "wraps", "title": "Wraps"}], "rating": 4.0, "coordinates": {"latitude": 38.2341097, "longitude": -122.641515}, "transactions": [], "price": "$$", "location": {"address1": "121 Kentucky St", "address2": "", "address3": "", "city": "Petaluma", "zip_code": "94952", "country": "US", "state": "CA", "display_address": ["121 Kentucky St", "Petaluma, CA 94952"]}, "phone": "+17077621700", "display_phone": "(707) 762-1700", "distance": 17242.4131026763}, {"id": "UmiwKRhUVcr57IWpIfgLsQ", "alias": "cucina-paradiso-petaluma", "name": "Cucina Paradiso", "image_url": "https://s3-media1.fl.yelpcdn.com/bphoto/-oPBio4LkauljvfOgselYw/o.jpg", "is_closed": false, "url": "https://www.yelp.com/biz/cucina-paradiso-petaluma?adjust_creative=K_rJo7VUP5JRiFo1Dydvmw&utm_campaign=yelp_api_v3&utm_medium=api_v3_business_search&utm_source=K_rJo7VUP5JRiFo1Dydvmw", "review_count": 742, "categories": [{"alias": "italian", "title": "Italian"}], "rating": 4.5, "coordinates": {"latitude": 38.23456, "longitude": -122.64019}, "transactions": [], "price": "$$", "location": {"address1": "114 Petaluma Blvd N", "address2": "", "address3": "", "city": "Petaluma", "zip_code": "94952", "country": "US", "state": "CA", "display_address": ["114 Petaluma Blvd N", "Petaluma, CA 94952"]}, "phone": "+17077821130", "display_phone": "(707) 782-1130", "distance": 17220.69363248282}, {"id": "gZvuKdQ9U-5UOshXRC4PhA", "alias": "aqus-cafe-petaluma", "name": "Aqus Cafe", "image_url": "https://s3-media2.fl.yelpcdn.com/bphoto/C63zfft7MothjexN-Gwn-Q/o.jpg", "is_closed": false, "url": "https://www.yelp.com/biz/aqus-cafe-petaluma?adjust_creative=K_rJo7VUP5JRiFo1Dydvmw&utm_campaign=yelp_api_v3&utm_medium=api_v3_business_search&utm_source=K_rJo7VUP5JRiFo1Dydvmw", "review_count": 226, "categories": [{"alias": "coffee", "title": "Coffee & Tea"}, {"alias": "cafes", "title": "Cafes"}, {"alias": "musicvenues", "title": "Music Venues"}], "rating": 4.0, "coordinates": {"latitude": 38.2312989, "longitude": -122.6312489}, "transactions": [], "price": "$$", "location": {"address1": "189 H St", "address2": "", "address3": "", "city": "Petaluma", "zip_code": "94952", "country": "US", "state": "CA", "display_address": ["189 H St", "Petaluma, CA 94952"]}, "phone": "+17077786060", "display_phone": "(707) 778-6060", "distance": 16593.953158357526}, {"id": "8g6-pxa1FTg25lLLUSIhPA", "alias": "mulberry-street-pizzeria-san-rafael-3", "name": "Mulberry Street Pizzeria", "image_url": "https://s3-media3.fl.yelpcdn.com/bphoto/XXtTABUwLT-9xkMDkyHxXA/o.jpg", "is_closed": false, "url": "https://www.yelp.com/biz/mulberry-street-pizzeria-san-rafael-3?adjust_creative=K_rJo7VUP5JRiFo1Dydvmw&utm_campaign=yelp_api_v3&utm_medium=api_v3_business_search&utm_source=K_rJo7VUP5JRiFo1Dydvmw", "review_count": 304, "categories": [{"alias": "pizza", "title": "Pizza"}, {"alias": "italian", "title": "Italian"}, {"alias": "salad", "title": "Salad"}], "rating": 3.5, "coordinates": {"latitude": 38.0200377160511, "longitude": -122.533498837445}, "transactions": ["pickup", "delivery"], "price": "$$", "location": {"address1": "101 Smith Ranch Rd", "address2": "Ste C", "address3": "", "city": "San Rafael", "zip_code": "94903", "country": "US", "state": "CA", "display_address": ["101 Smith Ranch Rd", "Ste C", "San Rafael, CA 94903"]}, "phone": "+14154727272", "display_phone": "(415) 472-7272", "distance": 8424.146589888507}, {"id": "AyRr1kmIoz57bXlrOGNpHg", "alias": "world-green-acai-bowl-juice-larkspur", "name": "World Green Acai Bowl Juice", "image_url": "https://s3-media3.fl.yelpcdn.com/bphoto/cSpsbq5cmdqrEJf8XPJ4aQ/o.jpg", "is_closed": false, "url": "https://www.yelp.com/biz/world-green-acai-bowl-juice-larkspur?adjust_creative=K_rJo7VUP5JRiFo1Dydvmw&utm_campaign=yelp_api_v3&utm_medium=api_v3_business_search&utm_source=K_rJo7VUP5JRiFo1Dydvmw", "review_count": 2, "categories": [{"alias": "acaibowls", "title": "Acai Bowls"}, {"alias": "coffee", "title": "Coffee & Tea"}, {"alias": "juicebars", "title": "Juice Bars & Smoothies"}], "rating": 5.0, "coordinates": {"latitude": 37.9365, "longitude": -122.534386}, "transactions": [], "location": {"address1": "546A Magnolia Ave", "address2": null, "address3": "", "city": "Larkspur", "zip_code": "94939", "country": "US", "state": "CA", "display_address": ["546A Magnolia Ave", "Larkspur, CA 94939"]}, "phone": "+14158868476", "display_phone": "(415) 886-8476", "distance": 17499.450164679598}, {"id": "xCQfTs1me-Nb5_gkJkuNYA", "alias": "king-of-the-roll-larkspur", "name": "King of the Roll", "image_url": "https://s3-media3.fl.yelpcdn.com/bphoto/rNLxKWQ4biqCxhvS4LKAaQ/o.jpg", "is_closed": false, "url": "https://www.yelp.com/biz/king-of-the-roll-larkspur?adjust_creative=K_rJo7VUP5JRiFo1Dydvmw&utm_campaign=yelp_api_v3&utm_medium=api_v3_business_search&utm_source=K_rJo7VUP5JRiFo1Dydvmw", "review_count": 167, "categories": [{"alias": "sushi", "title": "Sushi Bars"}, {"alias": "japanese", "title": "Japanese"}], "rating": 3.5, "coordinates": {"latitude": 37.93669, "longitude": -122.53463}, "transactions": ["delivery"], "price": "$$", "location": {"address1": "552 Magnolia Ave", "address2": "", "address3": "", "city": "Larkspur", "zip_code": "94939", "country": "US", "state": "CA", "display_address": ["552 Magnolia Ave", "Larkspur, CA 94939"]}, "phone": "+14159241900", "display_phone": "(415) 924-1900", "distance": 17476.19117355789}, {"id": "L78sQNA_pVyD8F4EkunArA", "alias": "gaspares-pizzeria-ristorante-and-bar-san-rafael-2", "name": "Gaspare's Pizzeria Ristorante and Bar", "image_url": "https://s3-media3.fl.yelpcdn.com/bphoto/lHOQnlMbWoa0ffWIB9qeYg/o.jpg", "is_closed": false, "url": "https://www.yelp.com/biz/gaspares-pizzeria-ristorante-and-bar-san-rafael-2?adjust_creative=K_rJo7VUP5JRiFo1Dydvmw&utm_campaign=yelp_api_v3&utm_medium=api_v3_business_search&utm_source=K_rJo7VUP5JRiFo1Dydvmw", "review_count": 318, "categories": [{"alias": "pizza", "title": "Pizza"}, {"alias": "italian", "title": "Italian"}, {"alias": "bars", "title": "Bars"}], "rating": 4.0, "coordinates": {"latitude": 37.99651, "longitude": -122.53536}, "transactions": ["pickup", "delivery"], "price": "$$", "location": {"address1": "200 Merrydale Rd", "address2": "", "address3": "", "city": "San Rafael", "zip_code": "94903", "country": "US", "state": "CA", "display_address": ["200 Merrydale Rd", "San Rafael, CA 94903"]}, "phone": "+14154727101", "display_phone": "(415) 472-7101", "distance": 10910.15098984688}, {"id": "pW_maSR3fmWnu-7SboN-Wg", "alias": "marin-coffee-roasters-novato", "name": "Marin Coffee Roasters", "image_url": "https://s3-media1.fl.yelpcdn.com/bphoto/dEorkE0f-jB76bb-BHA2bQ/o.jpg", "is_closed": false, "url": "https://www.yelp.com/biz/marin-coffee-roasters-novato?adjust_creative=K_rJo7VUP5JRiFo1Dydvmw&utm_campaign=yelp_api_v3&utm_medium=api_v3_business_search&utm_source=K_rJo7VUP5JRiFo1Dydvmw", "review_count": 40, "categories": [{"alias": "cafes", "title": "Cafes"}], "rating": 3.5, "coordinates": {"latitude": 38.0987510681152, "longitude": -122.570793151855}, "transactions": ["pickup", "delivery"], "price": "$", "location": {"address1": "1551 S Novato Blvd", "address2": "", "address3": "", "city": "Novato", "zip_code": "94960", "country": "US", "state": "CA", "display_address": ["1551 S Novato Blvd", "Novato, CA 94960"]}, "phone": "+14158928373", "display_phone": "(415) 892-8373", "distance": 1044.9713319493342}, {"id": "UU0SNC2mZZvYxruo7SRDVg", "alias": "safeway-novato-2", "name": "Safeway", "image_url": "https://s3-media1.fl.yelpcdn.com/bphoto/AJI0s0ZjYLe-Nw2NItnBcQ/o.jpg", "is_closed": false, "url": "https://www.yelp.com/biz/safeway-novato-2?adjust_creative=K_rJo7VUP5JRiFo1Dydvmw&utm_campaign=yelp_api_v3&utm_medium=api_v3_business_search&utm_source=K_rJo7VUP5JRiFo1Dydvmw", "review_count": 75, "categories": [{"alias": "grocery", "title": "Grocery"}], "rating": 2.5, "coordinates": {"latitude": 38.104064, "longitude": -122.571228}, "transactions": [], "price": "$$", "location": {"address1": "900 Diablo Ave", "address2": "", "address3": "", "city": "Novato", "zip_code": "94947", "country": "US", "state": "CA", "display_address": ["900 Diablo Ave", "Novato, CA 94947"]}, "phone": "+14158981503", "display_phone": "(415) 898-1503", "distance": 1519.0016850761845}, {"id": "avD0ccIDui2BN2tfe3iF_g", "alias": "valley-inn-of-san-geronimo-san-geronimo", "name": "Valley Inn of San Geronimo", "image_url": "https://s3-media2.fl.yelpcdn.com/bphoto/-ZzPe1ufKp393t19oP5bSw/o.jpg", "is_closed": false, "url": "https://www.yelp.com/biz/valley-inn-of-san-geronimo-san-geronimo?adjust_creative=K_rJo7VUP5JRiFo1Dydvmw&utm_campaign=yelp_api_v3&utm_medium=api_v3_business_search&utm_source=K_rJo7VUP5JRiFo1Dydvmw", "review_count": 5, "categories": [{"alias": "hotels", "title": "Hotels"}, {"alias": "restaurants", "title": "Restaurants"}], "rating": 4.0, "coordinates": {"latitude": 38.01413, "longitude": -122.66748}, "transactions": [], "location": {"address1": "625 San Geronimo Vly", "address2": "", "address3": "", "city": "San Geronimo", "zip_code": "94963", "country": "US", "state": "CA", "display_address": ["625 San Geronimo Vly", "San Geronimo, CA 94963"]}, "phone": "+14154880105", "display_phone": "(415) 488-0105", "distance": 12683.130558945226}, {"id": "MsRh2vl8t1IHO-M5wopUIg", "alias": "rafys-pizzeria-petaluma-3", "name": "Rafy's Pizzeria", "image_url": "https://s3-media1.fl.yelpcdn.com/bphoto/hqr99GgSnO9Eq8s_bQMNnQ/o.jpg", "is_closed": false, "url": "https://www.yelp.com/biz/rafys-pizzeria-petaluma-3?adjust_creative=K_rJo7VUP5JRiFo1Dydvmw&utm_campaign=yelp_api_v3&utm_medium=api_v3_business_search&utm_source=K_rJo7VUP5JRiFo1Dydvmw", "review_count": 199, "categories": [{"alias": "pizza", "title": "Pizza"}, {"alias": "salad", "title": "Salad"}, {"alias": "sandwiches", "title": "Sandwiches"}], "rating": 4.5, "coordinates": {"latitude": 38.2407275112086, "longitude": -122.634562793098}, "transactions": ["pickup", "delivery"], "price": "$$", "location": {"address1": "615 E Washington St", "address2": "", "address3": "", "city": "Petaluma", "zip_code": "94952", "country": "US", "state": "CA", "display_address": ["615 E Washington St", "Petaluma, CA 94952"]}, "phone": "+17075595735", "display_phone": "(707) 559-5735", "distance": 17670.76662138482}], "total": 1100, "region": {"center": {"longitude": -122.56210327148438, "latitude": 38.092372469871066}}}