{"businesses": [{"id": "QNLHt_vM44DYTFjqxFj5Ug", "alias": "la-chulada-market-petaluma", "name": "La Chulada Market", "image_url": "https://s3-media2.fl.yelpcdn.com/bphoto/NpSyFKSHXrO5lM6-Q_e-ww/o.jpg", "is_closed": false, "url": "https://www.yelp.com/biz/la-chulada-market-petaluma?adjust_creative=K_rJo7VUP5JRiFo1Dydvmw&utm_campaign=yelp_api_v3&utm_medium=api_v3_business_search&utm_source=K_rJo7VUP5JRiFo1Dydvmw", "review_count": 3, "categories": [{"alias": "grocery", "title": "Grocery"}], "rating": 4.5, "coordinates": {"latitude": 38.23532, "longitude": -122.60202}, "transactions": [], "price": "$", "location": {"address1": "1420 S McDowell Blvd", "address2": "", "address3": "", "city": "Petaluma", "zip_code": "94954", "country": "US", "state": "CA", "display_address": ["1420 S McDowell Blvd", "Petaluma, CA 94954"]}, "phone": "+17077691259", "display_phone": "(707) 769-1259", "distance": 16283.243101402486}, {"id": "t37MsI40xC-n_64XVnXloA", "alias": "wishbone-petaluma", "name": "Wishbone", "image_url": "https://s3-media1.fl.yelpcdn.com/bphoto/j43LfuuZu0UXL8Dl_PRUVQ/o.jpg", "is_closed": false, "url": "https://www.yelp.com/biz/wishbone-petaluma?adjust_creative=K_rJo7VUP5JRiFo1Dydvmw&utm_campaign=yelp_api_v3&utm_medium=api_v3_business_search&utm_source=K_rJo7VUP5JRiFo1Dydvmw", "review_count": 636, "categories": [{"alias": "newamerican", "title": "American (New)"}, {"alias": "breakfast_brunch", "title": "Breakfast & Brunch"}, {"alias": "bars", "title": "Bars"}], "rating": 4.0, "coordinates": {"latitude": 38.2447399, "longitude": -122.6450372}, "transactions": [], "price": "$$", "location": {"address1": "841 Petaluma Blvd N", "address2": "", "address3": "", "city": "Petaluma", "zip_code": "94952", "country": "US", "state": "CA", "display_address": ["841 Petaluma Blvd N", "Petaluma, CA 94952"]}, "phone": "+17077632663", "display_phone": "(707) 763-2663", "distance": 18428.56233798752}, {"id": "CjwyLWT0Tp-_a6PyXrXvCA", "alias": "oyama-sushi-petaluma", "name": "Oyama Sushi", "image_url": "https://s3-media1.fl.yelpcdn.com/bphoto/105aLJiMK7nzRdcT5HQsHw/o.jpg", "is_closed": false, "url": "https://www.yelp.com/biz/oyama-sushi-petaluma?adjust_creative=K_rJo7VUP5JRiFo1Dydvmw&utm_campaign=yelp_api_v3&utm_medium=api_v3_business_search&utm_source=K_rJo7VUP5JRiFo1Dydvmw", "review_count": 37, "categories": [{"alias": "sushi", "title": "Sushi Bars"}], "rating": 4.5, "coordinates": {"latitude": 38.24970383, "longitude": -122.62857067}, "transactions": [], "price": "$$", "location": {"address1": "175 N McDowell Blvd", "address2": "", "address3": null, "city": "Petaluma", "zip_code": "94954", "country": "US", "state": "CA", "display_address": ["175 N McDowell Blvd", "Petaluma, CA 94954"]}, "phone": "+17077746687", "display_phone": "(707) 774-6687", "distance": 18445.632958822822}, {"id": "NkILApm5_X3D9n7utbRGcw", "alias": "taco-bell-novato-2", "name": "Taco Bell", "image_url": "https://s3-media3.fl.yelpcdn.com/bphoto/ne7uNAyCBD2HzLdIZX9kJQ/o.jpg", "is_closed": false, "url": "https://www.yelp.com/biz/taco-bell-novato-2?adjust_creative=K_rJo7VUP5JRiFo1Dydvmw&utm_campaign=yelp_api_v3&utm_medium=api_v3_business_search&utm_source=K_rJo7VUP5JRiFo1Dydvmw", "review_count": 27, "categories": [{"alias": "tacos", "title": "Tacos"}, {"alias": "breakfast_brunch", "title": "Breakfast & Brunch"}], "rating": 2.5, "coordinates": {"latitude": 38.106326, "longitude": -122.578808}, "transactions": ["delivery"], "price": "$", "location": {"address1": "930 Seventh Street", "address2": null, "address3": null, "city": "Novato", "zip_code": "94945", "country": "US", "state": "CA", "display_address": ["930 Seventh Street", "Novato, CA 94945"]}, "phone": "+14158780230", "display_phone": "(415) 878-0230", "distance": 2131.6632309093256}, {"id": "WxoKPeoydZDUktFRNsZ_7w", "alias": "wine-or-lose-board-game-cafe-petaluma", "name": "Wine or Lose Board Game Cafe", "image_url": "https://s3-media3.fl.yelpcdn.com/bphoto/KRJvB5HGT1MUnABN3fEQNA/o.jpg", "is_closed": false, "url": "https://www.yelp.com/biz/wine-or-lose-board-game-cafe-petaluma?adjust_creative=K_rJo7VUP5JRiFo1Dydvmw&utm_campaign=yelp_api_v3&utm_medium=api_v3_business_search&utm_source=K_rJo7VUP5JRiFo1Dydvmw", "review_count": 29, "categories": [{"alias": "tapasmallplates", "title": "Tapas/Small Plates"}, {"alias": "newamerican", "title": "American (New)"}, {"alias": "comfortfood", "title": "Comfort Food"}], "rating": 4.5, "coordinates": {"latitude": 38.23445, "longitude": -122.64191}, "transactions": [], "location": {"address1": "131 Kentucky Street Petaluma Ca", "address2": null, "address3": "", "city": "Petaluma", "zip_code": "94952", "country": "US", "state": "CA", "display_address": ["131 Kentucky Street Petaluma Ca", "Petaluma, CA 94952"]}, "phone": "+17077734743", "display_phone": "(707) 773-4743", "distance": 17268.10770163443}, {"id": "ZJVHyTEhB0oqgEiOtOiIFQ", "alias": "djs-chinese-cuisine-larkspur", "name": "DJ's Chinese Cuisine", "image_url": "https://s3-media4.fl.yelpcdn.com/bphoto/aFiGrjw7TdrM_VSutxCong/o.jpg", "is_closed": false, "url": "https://www.yelp.com/biz/djs-chinese-cuisine-larkspur?adjust_creative=K_rJo7VUP5JRiFo1Dydvmw&utm_campaign=yelp_api_v3&utm_medium=api_v3_business_search&utm_source=K_rJo7VUP5JRiFo1Dydvmw", "review_count": 230, "categories": [{"alias": "chinese", "title": "Chinese"}], "rating": 4.0, "coordinates": {"latitude": 37.9349098205566, "longitude": -122.535797119141}, "transactions": ["delivery"], "price": "$$", "location": {"address1": "435 Magnolia Ave", "address2": "", "address3": "", "city": "Larkspur", "zip_code": "94939", "country": "US", "state": "CA", "display_address": ["435 Magnolia Ave", "Larkspur, CA 94939"]}, "phone": "+14159240717", "display_phone": "(415) 924-0717", "distance": 17661.046537674552}, {"id": "jNeW2Mj-W-3chZ2KBkf26Q", "alias": "pibil-authentic-yucatan-food-san-rafael", "name": "Pibil Authentic Yucatan Food", "image_url": "https://s3-media2.fl.yelpcdn.com/bphoto/GJFMbe2iJT2euroRntA2gw/o.jpg", "is_closed": false, "url": "https://www.yelp.com/biz/pibil-authentic-yucatan-food-san-rafael?adjust_creative=K_rJo7VUP5JRiFo1Dydvmw&utm_campaign=yelp_api_v3&utm_medium=api_v3_business_search&utm_source=K_rJo7VUP5JRiFo1Dydvmw", "review_count": 3, "categories": [{"alias": "mexican", "title": "Mexican"}], "rating": 4.5, "coordinates": {"latitude": 37.97306, "longitude": -122.52489}, "transactions": ["delivery", "pickup"], "location": {"address1": "842 4th St", "address2": null, "address3": null, "city": "San Rafael", "zip_code": "94901", "country": "US", "state": "CA", "display_address": ["842 4th St", "San Rafael, CA 94901"]}, "phone": "+14157557977", "display_phone": "(415) 755-7977", "distance": 13668.51083469662}, {"id": "ixhQVyi83RTOibYmGZE7pw", "alias": "caribbean-spices-san-rafael-2", "name": "Caribbean Spices", "image_url": "https://s3-media2.fl.yelpcdn.com/bphoto/VJaTMm2YFlJujznmUGwfbA/o.jpg", "is_closed": false, "url": "https://www.yelp.com/biz/caribbean-spices-san-rafael-2?adjust_creative=K_rJo7VUP5JRiFo1Dydvmw&utm_campaign=yelp_api_v3&utm_medium=api_v3_business_search&utm_source=K_rJo7VUP5JRiFo1Dydvmw", "review_count": 70, "categories": [{"alias": "haitian", "title": "Haitian"}, {"alias": "foodtrucks", "title": "Food Trucks"}], "rating": 4.0, "coordinates": {"latitude": 37.97252, "longitude": -122.52441}, "transactions": ["delivery", "pickup"], "price": "$", "location": {"address1": "819 4th St", "address2": null, "address3": "", "city": "San Rafael", "zip_code": "94901", "country": "US", "state": "CA", "display_address": ["819 4th St", "San Rafael, CA 94901"]}, "phone": "+14152992680", "display_phone": "(415) 299-2680", "distance": 13722.55784286122}, {"id": "PV2m0TqN8rw40unYRKnafQ", "alias": "seared-petaluma", "name": "Seared", "image_url": "https://s3-media3.fl.yelpcdn.com/bphoto/2FgQTAjXQ_co1_DaDFwDzA/o.jpg", "is_closed": false, "url": "https://www.yelp.com/biz/seared-petaluma?adjust_creative=K_rJo7VUP5JRiFo1Dydvmw&utm_campaign=yelp_api_v3&utm_medium=api_v3_business_search&utm_source=K_rJo7VUP5JRiFo1Dydvmw", "review_count": 640, "categories": [{"alias": "seafood", "title": "Seafood"}, {"alias": "steak", "title": "Steakhouses"}, {"alias": "sportsbars", "title": "Sports Bars"}], "rating": 4.0, "coordinates": {"latitude": 38.23549, "longitude": -122.64065}, "transactions": ["restaurant_reservation"], "price": "$$$", "location": {"address1": "170 Petaluma Blvd N", "address2": "", "address3": "", "city": "Petaluma", "zip_code": "94952", "country": "US", "state": "CA", "display_address": ["170 Petaluma Blvd N", "Petaluma, CA 94952"]}, "phone": "+17077625997", "display_phone": "(707) 762-5997", "distance": 17333.90755697718}, {"id": "WEs5gPYSeFXdjHTHY1HbLQ", "alias": "costco-food-court-novato", "name": "Costco Food Court", "image_url": "https://s3-media3.fl.yelpcdn.com/bphoto/cLTsPFRjMMWWLGCUjudVag/o.jpg", "is_closed": false, "url": "https://www.yelp.com/biz/costco-food-court-novato?adjust_creative=K_rJo7VUP5JRiFo1Dydvmw&utm_campaign=yelp_api_v3&utm_medium=api_v3_business_search&utm_source=K_rJo7VUP5JRiFo1Dydvmw", "review_count": 15, "categories": [{"alias": "pizza", "title": "Pizza"}, {"alias": "food_court", "title": "Food Court"}], "rating": 3.0, "coordinates": {"latitude": 38.087266, "longitude": -122.550639}, "transactions": [], "price": "$", "location": {"address1": "300 Vintage Way", "address2": "", "address3": "", "city": "Novato", "zip_code": "94945", "country": "US", "state": "CA", "display_address": ["300 Vintage Way", "Novato, CA 94945"]}, "phone": "+14158991349", "display_phone": "(415) 899-1349", "distance": 1152.83135211259}, {"id": "mMFgj8fi8pAFj-R0Bqh93g", "alias": "picante-taqueria-san-rafael", "name": "Picante Taqueria", "image_url": "https://s3-media3.fl.yelpcdn.com/bphoto/IdB1d_ItfZ3FlrVxwL6xwg/o.jpg", "is_closed": false, "url": "https://www.yelp.com/biz/picante-taqueria-san-rafael?adjust_creative=K_rJo7VUP5JRiFo1Dydvmw&utm_campaign=yelp_api_v3&utm_medium=api_v3_business_search&utm_source=K_rJo7VUP5JRiFo1Dydvmw", "review_count": 282, "categories": [{"alias": "mexican", "title": "Mexican"}], "rating": 4.0, "coordinates": {"latitude": 37.96155, "longitude": -122.49925}, "transactions": ["delivery"], "price": "$", "location": {"address1": "340 Bellam Blvd", "address2": null, "address3": "", "city": "San Rafael", "zip_code": "94901", "country": "US", "state": "CA", "display_address": ["340 Bellam Blvd", "San Rafael, CA 94901"]}, "phone": "+14154856050", "display_phone": "(415) 485-6050", "distance": 15555.031747662975}, {"id": "1AAZuyng_XB52oUMOQa5qQ", "alias": "smokys-sandwich-shop-san-rafael", "name": "Smoky's Sandwich Shop", "image_url": "https://s3-media2.fl.yelpcdn.com/bphoto/4zKM3J9EQ5rzn98Jl090Zw/o.jpg", "is_closed": false, "url": "https://www.yelp.com/biz/smokys-sandwich-shop-san-rafael?adjust_creative=K_rJo7VUP5JRiFo1Dydvmw&utm_campaign=yelp_api_v3&utm_medium=api_v3_business_search&utm_source=K_rJo7VUP5JRiFo1Dydvmw", "review_count": 34, "categories": [{"alias": "sandwiches", "title": "Sandwiches"}], "rating": 4.5, "coordinates": {"latitude": 37.95813, "longitude": -122.50483}, "transactions": ["delivery"], "price": "$", "location": {"address1": "21 Golden Gate Dr", "address2": "", "address3": "", "city": "San Rafael", "zip_code": "94901", "country": "US", "state": "CA", "display_address": ["21 Golden Gate Dr", "San Rafael, CA 94901"]}, "phone": "+14154562808", "display_phone": "(415) 456-2808", "distance": 15772.630891946656}, {"id": "hIr6AQ59Tb4NXtRZ5bp-qQ", "alias": "wu-wei-tea-temple-fairfax", "name": "Wu Wei Tea Temple", "image_url": "https://s3-media3.fl.yelpcdn.com/bphoto/qnvkbyx-Qk0oB6sa3zfIgA/o.jpg", "is_closed": false, "url": "https://www.yelp.com/biz/wu-wei-tea-temple-fairfax?adjust_creative=K_rJo7VUP5JRiFo1Dydvmw&utm_campaign=yelp_api_v3&utm_medium=api_v3_business_search&utm_source=K_rJo7VUP5JRiFo1Dydvmw", "review_count": 69, "categories": [{"alias": "tea", "title": "Tea Rooms"}], "rating": 4.5, "coordinates": {"latitude": 37.9874382019043, "longitude": -122.58765411377}, "transactions": [], "price": "$$", "location": {"address1": "1820 Sir Francis Drake Blvd", "address2": "", "address3": "", "city": "Fairfax", "zip_code": "94930", "country": "US", "state": "CA", "display_address": ["1820 Sir Francis Drake Blvd", "Fairfax, CA 94930"]}, "phone": "+14155162578", "display_phone": "(415) 516-2578", "distance": 11887.706303052155}, {"id": "uCXFTz8Amo5GJ39LWiKL_A", "alias": "great-donuts-novato", "name": "Great Donuts", "image_url": "https://s3-media2.fl.yelpcdn.com/bphoto/7aAjvrfhZ1uEyOLS9bQVIw/o.jpg", "is_closed": false, "url": "https://www.yelp.com/biz/great-donuts-novato?adjust_creative=K_rJo7VUP5JRiFo1Dydvmw&utm_campaign=yelp_api_v3&utm_medium=api_v3_business_search&utm_source=K_rJo7VUP5JRiFo1Dydvmw", "review_count": 24, "categories": [{"alias": "donuts", "title": "Donuts"}], "rating": 4.0, "coordinates": {"latitude": 38.111319, "longitude": -122.591801}, "transactions": [], "price": "$", "location": {"address1": "2011 Novato Blvd", "address2": "", "address3": "", "city": "Novato", "zip_code": "94947", "country": "US", "state": "CA", "display_address": ["2011 Novato Blvd", "Novato, CA 94947"]}, "phone": "+14158924946", "display_phone": "(415) 892-4946", "distance": 3345.298624405548}, {"id": "mxkledczXUFN3vs4fTdCJA", "alias": "pizzeria-picco-larkspur", "name": "Pizzeria Picco", "image_url": "https://s3-media4.fl.yelpcdn.com/bphoto/V3yIxLmpVaBeCFDBEew3Pg/o.jpg", "is_closed": false, "url": "https://www.yelp.com/biz/pizzeria-picco-larkspur?adjust_creative=K_rJo7VUP5JRiFo1Dydvmw&utm_campaign=yelp_api_v3&utm_medium=api_v3_business_search&utm_source=K_rJo7VUP5JRiFo1Dydvmw", "review_count": 525, "categories": [{"alias": "pizza", "title": "Pizza"}, {"alias": "wine_bars", "title": "Wine Bars"}], "rating": 4.0, "coordinates": {"latitude": 37.93366, "longitude": -122.53566}, "transactions": ["delivery"], "price": "$$", "location": {"address1": "316 Magnolia Ave", "address2": null, "address3": "", "city": "Larkspur", "zip_code": "94939", "country": "US", "state": "CA", "display_address": ["316 Magnolia Ave", "Larkspur, CA 94939"]}, "phone": "+14159458900", "display_phone": "(415) 945-8900", "distance": 17765.299793768754}, {"id": "WwpHkkwLMCTxmbfGh-yQQw", "alias": "cvs-pharmacy-novato-2", "name": "CVS Pharmacy", "image_url": "https://s3-media1.fl.yelpcdn.com/bphoto/mhUUhTE9zphNX2TkVS3LTw/o.jpg", "is_closed": false, "url": "https://www.yelp.com/biz/cvs-pharmacy-novato-2?adjust_creative=K_rJo7VUP5JRiFo1Dydvmw&utm_campaign=yelp_api_v3&utm_medium=api_v3_business_search&utm_source=K_rJo7VUP5JRiFo1Dydvmw", "review_count": 39, "categories": [{"alias": "drugstores", "title": "Drugstores"}, {"alias": "pharmacy", "title": "Pharmacy"}, {"alias": "convenience", "title": "Convenience Stores"}], "rating": 1.5, "coordinates": {"latitude": 38.108, "longitude": -122.579}, "transactions": [], "price": "$$", "location": {"address1": "1707 Grant Avenue", "address2": "", "address3": "", "city": "Novato", "zip_code": "94945", "country": "US", "state": "CA", "display_address": ["1707 Grant Avenue", "Novato, CA 94945"]}, "phone": "+14158974171", "display_phone": "(415) 897-4171", "distance": 2281.5783501313804}, {"id": "BDMN53C95xG_ELwgMqub6A", "alias": "sams-place-novato", "name": "Sam's Place", "image_url": "https://s3-media2.fl.yelpcdn.com/bphoto/3IQQbRwVcYF9nH3KAs5kow/o.jpg", "is_closed": false, "url": "https://www.yelp.com/biz/sams-place-novato?adjust_creative=K_rJo7VUP5JRiFo1Dydvmw&utm_campaign=yelp_api_v3&utm_medium=api_v3_business_search&utm_source=K_rJo7VUP5JRiFo1Dydvmw", "review_count": 93, "categories": [{"alias": "newamerican", "title": "American (New)"}, {"alias": "burgers", "title": "Burgers"}, {"alias": "sandwiches", "title": "Sandwiches"}], "rating": 3.5, "coordinates": {"latitude": 38.09821, "longitude": -122.57051}, "transactions": ["delivery", "pickup"], "price": "$$", "location": {"address1": "1545 S Novato Blvd", "address2": "", "address3": "", "city": "Novato", "zip_code": "94947", "country": "US", "state": "CA", "display_address": ["1545 S Novato Blvd", "Novato, CA 94947"]}, "phone": "+14152096668", "display_phone": "(415) 209-6668", "distance": 1038.6988728461683}, {"id": "M2ih1HOeNI7nUdoZA0MAwg", "alias": "wild-goat-bistro-petaluma", "name": "Wild Goat Bistro", "image_url": "https://s3-media1.fl.yelpcdn.com/bphoto/ny_3dwWABNjEDStl_ax40g/o.jpg", "is_closed": false, "url": "https://www.yelp.com/biz/wild-goat-bistro-petaluma?adjust_creative=K_rJo7VUP5JRiFo1Dydvmw&utm_campaign=yelp_api_v3&utm_medium=api_v3_business_search&utm_source=K_rJo7VUP5JRiFo1Dydvmw", "review_count": 745, "categories": [{"alias": "pizza", "title": "Pizza"}, {"alias": "newamerican", "title": "American (New)"}, {"alias": "gluten_free", "title": "Gluten-Free"}], "rating": 4.0, "coordinates": {"latitude": 38.234133, "longitude": -122.639032}, "transactions": ["delivery", "pickup"], "price": "$$", "location": {"address1": "6 Petaluma Blvd N", "address2": "Ste A5", "address3": "", "city": "Petaluma", "zip_code": "94952", "country": "US", "state": "CA", "display_address": ["6 Petaluma Blvd N", "Ste A5", "Petaluma, CA 94952"]}, "phone": "+17076581156", "display_phone": "(707) 658-1156", "distance": 17137.905888816058}, {"id": "-WBS6lAi9PHAYGpAj4N4zQ", "alias": "kona-ice-of-north-marin-novato-2", "name": "Kona Ice of North Marin", "image_url": "https://s3-media4.fl.yelpcdn.com/bphoto/G2Skqfk6Mt4adZX7DLVXEQ/o.jpg", "is_closed": false, "url": "https://www.yelp.com/biz/kona-ice-of-north-marin-novato-2?adjust_creative=K_rJo7VUP5JRiFo1Dydvmw&utm_campaign=yelp_api_v3&utm_medium=api_v3_business_search&utm_source=K_rJo7VUP5JRiFo1Dydvmw", "review_count": 10, "categories": [{"alias": "foodtrucks", "title": "Food Trucks"}, {"alias": "shavedice", "title": "Shaved Ice"}, {"alias": "icecream", "title": "Ice Cream & Frozen Yogurt"}], "rating": 5.0, "coordinates": {"latitude": 38.1008758544922, "longitude": -122.577209472656}, "transactions": [], "price": "$", "location": {"address1": null, "address2": null, "address3": "", "city": "Novato", "zip_code": "94947", "country": "US", "state": "CA", "display_address": ["Novato, CA 94947"]}, "phone": "+14152267576", "display_phone": "(415) 226-7576", "distance": 9417.046851420557}, {"id": "3XDHHxfd6ST345rzOlFSNA", "alias": "cafe-lotus-fairfax-2", "name": "Cafe Lotus", "image_url": "https://s3-media1.fl.yelpcdn.com/bphoto/0lmeIxB6QMdqEMPm6ZIhjQ/o.jpg", "is_closed": false, "url": "https://www.yelp.com/biz/cafe-lotus-fairfax-2?adjust_creative=K_rJo7VUP5JRiFo1Dydvmw&utm_campaign=yelp_api_v3&utm_medium=api_v3_business_search&utm_source=K_rJo7VUP5JRiFo1Dydvmw", "review_count": 169, "categories": [{"alias": "indpak", "title": "Indian"}], "rating": 4.5, "coordinates": {"latitude": 37.9873978, "longitude": -122.5884865}, "transactions": ["delivery"], "price": "$$", "location": {"address1": "1912 Sir Francis Drake Blvd", "address2": null, "address3": "", "city": "Fairfax", "zip_code": "94930", "country": "US", "state": "CA", "display_address": ["1912 Sir Francis Drake Blvd", "Fairfax, CA 94930"]}, "phone": "+14154577836", "display_phone": "(415) 457-7836", "distance": 11899.114812189684}, {"id": "_SBjHtyl6WhkhcgSh5Vp0A", "alias": "luna-de-xelaju-san-rafael", "name": "Luna De Xelaju", "image_url": "https://s3-media3.fl.yelpcdn.com/bphoto/EzqXZDsF7z1zDHsiSiBqQQ/o.jpg", "is_closed": false, "url": "https://www.yelp.com/biz/luna-de-xelaju-san-rafael?adjust_creative=K_rJo7VUP5JRiFo1Dydvmw&utm_campaign=yelp_api_v3&utm_medium=api_v3_business_search&utm_source=K_rJo7VUP5JRiFo1Dydvmw", "review_count": 6, "categories": [{"alias": "latin", "title": "Latin American"}], "rating": 4.5, "coordinates": {"latitude": 37.9612829199635, "longitude": -122.502373171543}, "transactions": ["delivery"], "location": {"address1": "180 Bellam Blvd", "address2": "", "address3": null, "city": "San Rafael", "zip_code": "94901", "country": "US", "state": "CA", "display_address": ["180 Bellam Blvd", "San Rafael, CA 94901"]}, "phone": "+14152518000", "display_phone": "(415) 251-8000", "distance": 15486.941070537388}, {"id": "AlRI0SHmXtiHAP5Faur7rg", "alias": "avatars-punjabi-burrito-fairfax", "name": "Avatars Punjabi Burrito", "image_url": "https://s3-media1.fl.yelpcdn.com/bphoto/w9NmoCBN3b2UO2djXoVCNw/o.jpg", "is_closed": false, "url": "https://www.yelp.com/biz/avatars-punjabi-burrito-fairfax?adjust_creative=K_rJo7VUP5JRiFo1Dydvmw&utm_campaign=yelp_api_v3&utm_medium=api_v3_business_search&utm_source=K_rJo7VUP5JRiFo1Dydvmw", "review_count": 149, "categories": [{"alias": "indpak", "title": "Indian"}, {"alias": "asianfusion", "title": "Asian Fusion"}], "rating": 4.0, "coordinates": {"latitude": 37.9858741310347, "longitude": -122.583595416637}, "transactions": ["delivery"], "price": "$$", "location": {"address1": "715 Center Blvd", "address2": "", "address3": "", "city": "Fairfax", "zip_code": "94930", "country": "US", "state": "CA", "display_address": ["715 Center Blvd", "Fairfax, CA 94930"]}, "phone": "+14154485361", "display_phone": "(415) 448-5361", "distance": 11990.708179006488}, {"id": "yV4YjgT-d2LRu0cM_OT8Uw", "alias": "creekside-pizza-and-taproom-san-anselmo-2", "name": "Creekside Pizza & Taproom", "image_url": "https://s3-media2.fl.yelpcdn.com/bphoto/Jgg_3VFRBUW3lFcEesXJ7Q/o.jpg", "is_closed": false, "url": "https://www.yelp.com/biz/creekside-pizza-and-taproom-san-anselmo-2?adjust_creative=K_rJo7VUP5JRiFo1Dydvmw&utm_campaign=yelp_api_v3&utm_medium=api_v3_business_search&utm_source=K_rJo7VUP5JRiFo1Dydvmw", "review_count": 160, "categories": [{"alias": "pizza", "title": "Pizza"}, {"alias": "beerbar", "title": "Beer Bar"}, {"alias": "sandwiches", "title": "Sandwiches"}], "rating": 4.5, "coordinates": {"latitude": 37.97634, "longitude": -122.56317}, "transactions": ["delivery", "pickup"], "price": "$$", "location": {"address1": "638 San Anselmo Ave", "address2": "", "address3": null, "city": "San Anselmo", "zip_code": "94960", "country": "US", "state": "CA", "display_address": ["638 San Anselmo Ave", "San Anselmo, CA 94960"]}, "phone": "+14157854450", "display_phone": "(415) 785-4450", "distance": 12913.250196711062}, {"id": "1l5lgWt5vzJfLKd7LMjfCQ", "alias": "pizzalina-san-anselmo", "name": "Pizzalina", "image_url": "https://s3-media1.fl.yelpcdn.com/bphoto/SPpGSneaIDL4yoeXd6pEmw/o.jpg", "is_closed": false, "url": "https://www.yelp.com/biz/pizzalina-san-anselmo?adjust_creative=K_rJo7VUP5JRiFo1Dydvmw&utm_campaign=yelp_api_v3&utm_medium=api_v3_business_search&utm_source=K_rJo7VUP5JRiFo1Dydvmw", "review_count": 200, "categories": [{"alias": "pizza", "title": "Pizza"}, {"alias": "wine_bars", "title": "Wine Bars"}], "rating": 4.0, "coordinates": {"latitude": 37.9813426, "longitude": -122.5664461}, "transactions": ["delivery", "pickup"], "price": "$$", "location": {"address1": "914 Sir Francis Drake", "address2": "", "address3": "", "city": "San Anselmo", "zip_code": "94960", "country": "US", "state": "CA", "display_address": ["914 Sir Francis Drake", "San Anselmo, CA 94960"]}, "phone": "+14152569780", "display_phone": "(415) 256-9780", "distance": 12351.80166232519}, {"id": "l8HMsLMMpdOFpEr6OvE2aA", "alias": "teeny-cake-novato-2", "name": "Teeny Cake", "image_url": "https://s3-media2.fl.yelpcdn.com/bphoto/ZQerLpW1rmIYLJb2YlCkDA/o.jpg", "is_closed": false, "url": "https://www.yelp.com/biz/teeny-cake-novato-2?adjust_creative=K_rJo7VUP5JRiFo1Dydvmw&utm_campaign=yelp_api_v3&utm_medium=api_v3_business_search&utm_source=K_rJo7VUP5JRiFo1Dydvmw", "review_count": 194, "categories": [{"alias": "bakeries", "title": "Bakeries"}, {"alias": "cupcakes", "title": "Cupcakes"}, {"alias": "venues", "title": "Venues & Event Spaces"}], "rating": 4.5, "coordinates": {"latitude": 38.108755, "longitude": -122.569181}, "transactions": ["delivery"], "price": "$", "location": {"address1": "7400 Redwood Blvd", "address2": "Ste 101", "address3": "", "city": "Novato", "zip_code": "94945", "country": "US", "state": "CA", "display_address": ["7400 Redwood Blvd", "Ste 101", "Novato, CA 94945"]}, "phone": "+14158955003", "display_phone": "(415) 895-5003", "distance": 1924.0509207934615}, {"id": "eCKSJ5AMBL5cYMM_9Db5aA", "alias": "estilo-chilanga-richmond", "name": "Estilo Chilanga", "image_url": "https://s3-media3.fl.yelpcdn.com/bphoto/-ArXM9TQ_DHRKYVHfEri_A/o.jpg", "is_closed": false, "url": "https://www.yelp.com/biz/estilo-chilanga-richmond?adjust_creative=K_rJo7VUP5JRiFo1Dydvmw&utm_campaign=yelp_api_v3&utm_medium=api_v3_business_search&utm_source=K_rJo7VUP5JRiFo1Dydvmw", "review_count": 7, "categories": [{"alias": "mexican", "title": "Mexican"}], "rating": 4.5, "coordinates": {"latitude": 37.943427, "longitude": -122.364073}, "transactions": [], "location": {"address1": "740 5th St", "address2": "", "address3": null, "city": "Richmond", "zip_code": "94801", "country": "US", "state": "CA", "display_address": ["740 5th St", "Richmond, CA 94801"]}, "phone": "+15108372145", "display_phone": "(510) 837-2145", "distance": 23984.1839375658}, {"id": "-rKMLgqVMYHaYhBQhTLY9A", "alias": "bombay-grill-san-rafael", "name": "Bombay Grill", "image_url": "https://s3-media2.fl.yelpcdn.com/bphoto/Z8oi-9JmRZRSt_Zb3jT5xw/o.jpg", "is_closed": false, "url": "https://www.yelp.com/biz/bombay-grill-san-rafael?adjust_creative=K_rJo7VUP5JRiFo1Dydvmw&utm_campaign=yelp_api_v3&utm_medium=api_v3_business_search&utm_source=K_rJo7VUP5JRiFo1Dydvmw", "review_count": 126, "categories": [{"alias": "indpak", "title": "Indian"}, {"alias": "diners", "title": "Diners"}, {"alias": "buffets", "title": "Buffets"}], "rating": 4.5, "coordinates": {"latitude": 37.97378, "longitude": -122.53285}, "transactions": ["delivery", "pickup"], "price": "$$", "location": {"address1": "1444 4th St", "address2": null, "address3": "", "city": "San Rafael", "zip_code": "94901", "country": "US", "state": "CA", "display_address": ["1444 4th St", "San Rafael, CA 94901"]}, "phone": "+14154550444", "display_phone": "(415) 455-0444", "distance": 13425.50234945466}, {"id": "1eqREpeV6zvE0LVd7TeIDA", "alias": "paradise-sushi-and-grill-petaluma", "name": "Paradise Sushi & Grill", "image_url": "https://s3-media3.fl.yelpcdn.com/bphoto/dApT7AWc9f73YzLMQ9GIRA/o.jpg", "is_closed": false, "url": "https://www.yelp.com/biz/paradise-sushi-and-grill-petaluma?adjust_creative=K_rJo7VUP5JRiFo1Dydvmw&utm_campaign=yelp_api_v3&utm_medium=api_v3_business_search&utm_source=K_rJo7VUP5JRiFo1Dydvmw", "review_count": 344, "categories": [{"alias": "japanese", "title": "Japanese"}, {"alias": "sushi", "title": "Sushi Bars"}], "rating": 3.5, "coordinates": {"latitude": 38.2353649685574, "longitude": -122.639339956873}, "transactions": [], "price": "$$", "location": {"address1": "20 E Washington St", "address2": "", "address3": "", "city": "Petaluma", "zip_code": "94952", "country": "US", "state": "CA", "display_address": ["20 E Washington St", "Petaluma, CA 94952"]}, "phone": "+17077819695", "display_phone": "(707) 781-9695", "distance": 17274.472706517874}, {"id": "8OSQPU-lkhHMGI27_tdn5A", "alias": "ohana-hawaiian-bbq-petaluma", "name": "Ohana Hawaiian BBQ", "image_url": "https://s3-media3.fl.yelpcdn.com/bphoto/pOLhU8SfK6i6aifxFWYEbg/o.jpg", "is_closed": false, "url": "https://www.yelp.com/biz/ohana-hawaiian-bbq-petaluma?adjust_creative=K_rJo7VUP5JRiFo1Dydvmw&utm_campaign=yelp_api_v3&utm_medium=api_v3_business_search&utm_source=K_rJo7VUP5JRiFo1Dydvmw", "review_count": 87, "categories": [{"alias": "hawaiian", "title": "Hawaiian"}, {"alias": "bbq", "title": "Barbeque"}], "rating": 3.5, "coordinates": {"latitude": 38.249179931878, "longitude": -122.624749044178}, "transactions": [], "price": "$$", "location": {"address1": "205 S McDowell Blvd", "address2": "", "address3": "", "city": "Petaluma", "zip_code": "94954", "country": "US", "state": "CA", "display_address": ["205 S McDowell Blvd", "Petaluma, CA 94954"]}, "phone": "+17077668282", "display_phone": "(707) 766-8282", "distance": 18275.965913326752}, {"id": "TPbMlbWWE_NS5pIatCyiTA", "alias": "jasmine-market-san-rafael-2", "name": "Jasmine Market", "image_url": "https://s3-media4.fl.yelpcdn.com/bphoto/4bQYGrX7tXMdpO_c1c9T-A/o.jpg", "is_closed": false, "url": "https://www.yelp.com/biz/jasmine-market-san-rafael-2?adjust_creative=K_rJo7VUP5JRiFo1Dydvmw&utm_campaign=yelp_api_v3&utm_medium=api_v3_business_search&utm_source=K_rJo7VUP5JRiFo1Dydvmw", "review_count": 37, "categories": [{"alias": "mideastern", "title": "Middle Eastern"}, {"alias": "grocery", "title": "Grocery"}, {"alias": "importedfood", "title": "Imported Food"}], "rating": 4.5, "coordinates": {"latitude": 37.9703542, "longitude": -122.5167679}, "transactions": ["delivery"], "price": "$$", "location": {"address1": "307 3rd St", "address2": "", "address3": "", "city": "San Rafael", "zip_code": "94901", "country": "US", "state": "CA", "display_address": ["307 3rd St", "San Rafael, CA 94901"]}, "phone": "+14154594866", "display_phone": "(415) 459-4866", "distance": 14262.582496799829}, {"id": "kLjbAiaApUtHSrDgreMI6Q", "alias": "creek-side-deli-novato", "name": "Creek Side Deli", "image_url": "https://s3-media2.fl.yelpcdn.com/bphoto/GLM5NS0H1y2kNYsGYz-R4Q/o.jpg", "is_closed": false, "url": "https://www.yelp.com/biz/creek-side-deli-novato?adjust_creative=K_rJo7VUP5JRiFo1Dydvmw&utm_campaign=yelp_api_v3&utm_medium=api_v3_business_search&utm_source=K_rJo7VUP5JRiFo1Dydvmw", "review_count": 4, "categories": [{"alias": "grocery", "title": "Grocery"}], "rating": 4.5, "coordinates": {"latitude": 38.04997, "longitude": -122.52998}, "transactions": [], "price": "$$", "location": {"address1": "275 Marin Valley Dr", "address2": "", "address3": "", "city": "Novato", "zip_code": "94949", "country": "US", "state": "CA", "display_address": ["275 Marin Valley Dr", "Novato, CA 94949"]}, "phone": "+14158849700", "display_phone": "(415) 884-9700", "distance": 5489.180319851842}, {"id": "qABHeqm8wWSFFoy7tro1SQ", "alias": "farmshop-larkspur", "name": "Farmshop", "image_url": "https://s3-media3.fl.yelpcdn.com/bphoto/EyiXMqX0TqKisk1r-S8npg/o.jpg", "is_closed": false, "url": "https://www.yelp.com/biz/farmshop-larkspur?adjust_creative=K_rJo7VUP5JRiFo1Dydvmw&utm_campaign=yelp_api_v3&utm_medium=api_v3_business_search&utm_source=K_rJo7VUP5JRiFo1Dydvmw", "review_count": 580, "categories": [{"alias": "newamerican", "title": "American (New)"}, {"alias": "breakfast_brunch", "title": "Breakfast & Brunch"}, {"alias": "bars", "title": "Bars"}], "rating": 3.5, "coordinates": {"latitude": 37.947277, "longitude": -122.509117}, "transactions": ["delivery", "pickup"], "price": "$$$", "location": {"address1": "2233 Larkspur Landing Cir", "address2": "", "address3": "", "city": "Larkspur", "zip_code": "94939", "country": "US", "state": "CA", "display_address": ["2233 Larkspur Landing Cir", "Larkspur, CA 94939"]}, "phone": "+14157556700", "display_phone": "(415) 755-6700", "distance": 16788.25231918831}, {"id": "3EHeOAm_t2k0zPTvkqMRUw", "alias": "whisper-sisters-petaluma", "name": "Whisper Sisters", "image_url": "https://s3-media1.fl.yelpcdn.com/bphoto/_veYvNf98gVa0-7MMIiLMg/o.jpg", "is_closed": false, "url": "https://www.yelp.com/biz/whisper-sisters-petaluma?adjust_creative=K_rJo7VUP5JRiFo1Dydvmw&utm_campaign=yelp_api_v3&utm_medium=api_v3_business_search&utm_source=K_rJo7VUP5JRiFo1Dydvmw", "review_count": 76, "categories": [{"alias": "cocktailbars", "title": "Cocktail Bars"}, {"alias": "newamerican", "title": "American (New)"}, {"alias": "coffee", "title": "Coffee & Tea"}], "rating": 4.5, "coordinates": {"latitude": 38.235401, "longitude": -122.6418083}, "transactions": [], "location": {"address1": "190 Kentucky St", "address2": null, "address3": "", "city": "Petaluma", "zip_code": "94952", "country": "US", "state": "CA", "display_address": ["190 Kentucky St", "Petaluma, CA 94952"]}, "phone": "+17077746689", "display_phone": "(707) 774-6689", "distance": 17363.63292721065}, {"id": "F5kGSYN9-32beL9aZejKrQ", "alias": "johnny-doughnuts-san-rafael", "name": "Johnny Doughnuts", "image_url": "https://s3-media3.fl.yelpcdn.com/bphoto/qQMaEUAX251VbDJ1ZLTsGQ/o.jpg", "is_closed": false, "url": "https://www.yelp.com/biz/johnny-doughnuts-san-rafael?adjust_creative=K_rJo7VUP5JRiFo1Dydvmw&utm_campaign=yelp_api_v3&utm_medium=api_v3_business_search&utm_source=K_rJo7VUP5JRiFo1Dydvmw", "review_count": 532, "categories": [{"alias": "donuts", "title": "Donuts"}, {"alias": "foodtrucks", "title": "Food Trucks"}, {"alias": "catering", "title": "Caterers"}], "rating": 4.0, "coordinates": {"latitude": 37.974134, "longitude": -122.537321}, "transactions": ["delivery"], "price": "$$", "location": {"address1": "1617 4th St", "address2": "", "address3": "", "city": "San Rafael", "zip_code": "94901", "country": "US", "state": "CA", "display_address": ["1617 4th St", "San Rafael, CA 94901"]}, "phone": "+14154501866", "display_phone": "(415) 450-1866", "distance": 13325.461753193711}, {"id": "IrewZUrWOy2wyyOYX-o6Ww", "alias": "las-guitarras-restaurant-novato", "name": "Las Guitarras Restaurant", "image_url": "https://s3-media3.fl.yelpcdn.com/bphoto/WWsFVQUs8vzoaTQCGW6Nwg/o.jpg", "is_closed": false, "url": "https://www.yelp.com/biz/las-guitarras-restaurant-novato?adjust_creative=K_rJo7VUP5JRiFo1Dydvmw&utm_campaign=yelp_api_v3&utm_medium=api_v3_business_search&utm_source=K_rJo7VUP5JRiFo1Dydvmw", "review_count": 184, "categories": [{"alias": "mexican", "title": "Mexican"}], "rating": 3.0, "coordinates": {"latitude": 38.10757, "longitude": -122.56646}, "transactions": [], "price": "$$", "location": {"address1": "1017 Reichert Ave", "address2": "", "address3": "", "city": "Novato", "zip_code": "94945", "country": "US", "state": "CA", "display_address": ["1017 Reichert Ave", "Novato, CA 94945"]}, "phone": "+14158923171", "display_phone": "(415) 892-3171", "distance": 1735.1800308561403}, {"id": "wDvTdmuJrJmfpaxWGPez-w", "alias": "roli-roti-gourmet-rotisserie-fairfax", "name": "Roli Roti Gourmet Rotisserie", "image_url": "https://s3-media4.fl.yelpcdn.com/bphoto/0B0FBfe4RNt1D1CBlycBSA/o.jpg", "is_closed": false, "url": "https://www.yelp.com/biz/roli-roti-gourmet-rotisserie-fairfax?adjust_creative=K_rJo7VUP5JRiFo1Dydvmw&utm_campaign=yelp_api_v3&utm_medium=api_v3_business_search&utm_source=K_rJo7VUP5JRiFo1Dydvmw", "review_count": 5, "categories": [{"alias": "chickenshop", "title": "Chicken Shop"}, {"alias": "foodtrucks", "title": "Food Trucks"}, {"alias": "sandwiches", "title": "Sandwiches"}], "rating": 4.5, "coordinates": {"latitude": 37.9852183, "longitude": -122.5904093}, "transactions": [], "price": "$", "location": {"address1": "124 Bolinas Rd", "address2": "", "address3": "", "city": "Fairfax", "zip_code": "94930", "country": "US", "state": "CA", "display_address": ["124 Bolinas Rd", "Fairfax, CA 94930"]}, "phone": "+15107800300", "display_phone": "(510) 780-0300", "distance": 12170.129005587265}, {"id": "Se5ar-_dGr5kWh4d13DwMg", "alias": "churro-station-san-rafael", "name": "Churro Station", "image_url": "https://s3-media1.fl.yelpcdn.com/bphoto/l1bRVPk785cGVHC-GIxZ5Q/o.jpg", "is_closed": false, "url": "https://www.yelp.com/biz/churro-station-san-rafael?adjust_creative=K_rJo7VUP5JRiFo1Dydvmw&utm_campaign=yelp_api_v3&utm_medium=api_v3_business_search&utm_source=K_rJo7VUP5JRiFo1Dydvmw", "review_count": 24, "categories": [{"alias": "coffee", "title": "Coffee & Tea"}, {"alias": "mexican", "title": "Mexican"}, {"alias": "latin", "title": "Latin American"}], "rating": 3.5, "coordinates": {"latitude": 37.963569, "longitude": -122.5093}, "transactions": ["delivery"], "price": "$", "location": {"address1": "26 Medway", "address2": "Ste 3", "address3": "", "city": "San Rafael", "zip_code": "94901", "country": "US", "state": "CA", "display_address": ["26 Medway", "Ste 3", "San Rafael, CA 94901"]}, "phone": "+14154598000", "display_phone": "(415) 459-8000", "distance": 15068.62895116534}, {"id": "ZVjYJ9sK4iNTiMALCkpjFw", "alias": "palooza-beer-garden-and-eatery-sonoma-3", "name": "Palooza Beer Garden & Eatery", "image_url": "https://s3-media4.fl.yelpcdn.com/bphoto/K68T8jDZEj-9f4n32HZP7Q/o.jpg", "is_closed": false, "url": "https://www.yelp.com/biz/palooza-beer-garden-and-eatery-sonoma-3?adjust_creative=K_rJo7VUP5JRiFo1Dydvmw&utm_campaign=yelp_api_v3&utm_medium=api_v3_business_search&utm_source=K_rJo7VUP5JRiFo1Dydvmw", "review_count": 32, "categories": [{"alias": "beergardens", "title": "Beer Gardens"}, {"alias": "gastropubs", "title": "Gastropubs"}, {"alias": "tradamerican", "title": "American (Traditional)"}], "rating": 3.5, "coordinates": {"latitude": 38.22746183, "longitude": -122.45745867}, "transactions": ["restaurant_reservation"], "location": {"address1": "23584 Arnold Dr", "address2": null, "address3": "", "city": "Sonoma", "zip_code": "95476", "country": "US", "state": "CA", "display_address": ["23584 Arnold Dr", "Sonoma, CA 95476"]}, "phone": "+17078334000", "display_phone": "(707) 833-4000", "distance": 17565.91424538894}, {"id": "FkdXAAQML4LIu28xr4RmbA", "alias": "pub-republic-petaluma", "name": "Pub Republic", "image_url": "https://s3-media1.fl.yelpcdn.com/bphoto/6SrduXGZZerIo2rHpwk-pA/o.jpg", "is_closed": false, "url": "https://www.yelp.com/biz/pub-republic-petaluma?adjust_creative=K_rJo7VUP5JRiFo1Dydvmw&utm_campaign=yelp_api_v3&utm_medium=api_v3_business_search&utm_source=K_rJo7VUP5JRiFo1Dydvmw", "review_count": 685, "categories": [{"alias": "gastropubs", "title": "Gastropubs"}, {"alias": "newamerican", "title": "American (New)"}, {"alias": "breakfast_brunch", "title": "Breakfast & Brunch"}], "rating": 4.0, "coordinates": {"latitude": 38.233826, "longitude": -122.598591}, "transactions": [], "price": "$$", "location": {"address1": "3120 Lakeville Hwy", "address2": "", "address3": "", "city": "Petaluma", "zip_code": "94954", "country": "US", "state": "CA", "display_address": ["3120 Lakeville Hwy", "Petaluma, CA 94954"]}, "phone": "+17077829090", "display_phone": "(707) 782-9090", "distance": 16049.127415792611}, {"id": "tpZJb13luDMUwU3VuRAL-A", "alias": "guesthouse-kentfield", "name": "Guesthouse", "image_url": "https://s3-media2.fl.yelpcdn.com/bphoto/-jSLX-8JnzZbxLLjV0h7Pg/o.jpg", "is_closed": false, "url": "https://www.yelp.com/biz/guesthouse-kentfield?adjust_creative=K_rJo7VUP5JRiFo1Dydvmw&utm_campaign=yelp_api_v3&utm_medium=api_v3_business_search&utm_source=K_rJo7VUP5JRiFo1Dydvmw", "review_count": 235, "categories": [{"alias": "cocktailbars", "title": "Cocktail Bars"}, {"alias": "newamerican", "title": "American (New)"}, {"alias": "seafood", "title": "Seafood"}], "rating": 4.0, "coordinates": {"latitude": 37.95453, "longitude": -122.54798}, "transactions": ["delivery"], "price": "$$$", "location": {"address1": "850 College Ave", "address2": "", "address3": null, "city": "Kentfield", "zip_code": "94904", "country": "US", "state": "CA", "display_address": ["850 College Ave", "Kentfield, CA 94904"]}, "phone": "+14154195101", "display_phone": "(415) 419-5101", "distance": 15367.126459355826}, {"id": "-6JgKeDjWE0YdWCDmK4Kpw", "alias": "the-block-petaluma-2", "name": "The Block", "image_url": "https://s3-media2.fl.yelpcdn.com/bphoto/MSa1ADPI845-NLpcsjS7aQ/o.jpg", "is_closed": false, "url": "https://www.yelp.com/biz/the-block-petaluma-2?adjust_creative=K_rJo7VUP5JRiFo1Dydvmw&utm_campaign=yelp_api_v3&utm_medium=api_v3_business_search&utm_source=K_rJo7VUP5JRiFo1Dydvmw", "review_count": 116, "categories": [{"alias": "foodtrucks", "title": "Food Trucks"}, {"alias": "beergardens", "title": "Beer Gardens"}], "rating": 4.5, "coordinates": {"latitude": 38.237355, "longitude": -122.638768}, "transactions": [], "price": "$$", "location": {"address1": "20 Grey St", "address2": null, "address3": "", "city": "Petaluma", "zip_code": "94952", "country": "US", "state": "CA", "display_address": ["20 Grey St", "Petaluma, CA 94952"]}, "phone": "+17077756003", "display_phone": "(707) 775-6003", "distance": 17459.068880982417}, {"id": "mJwOnycaoRfK778rl2wYdA", "alias": "hillside-tavern-san-rafael", "name": "Hillside Tavern", "image_url": "https://s3-media3.fl.yelpcdn.com/bphoto/QBolCziWG7kqg3JWig-sBA/o.jpg", "is_closed": false, "url": "https://www.yelp.com/biz/hillside-tavern-san-rafael?adjust_creative=K_rJo7VUP5JRiFo1Dydvmw&utm_campaign=yelp_api_v3&utm_medium=api_v3_business_search&utm_source=K_rJo7VUP5JRiFo1Dydvmw", "review_count": 13, "categories": [{"alias": "tradamerican", "title": "American (Traditional)"}, {"alias": "bars", "title": "Bars"}], "rating": 4.0, "coordinates": {"latitude": 38.009197, "longitude": -122.543273}, "transactions": [], "price": "$$", "location": {"address1": "1010 Northgate Dr", "address2": "", "address3": "Four Points by Sheraton San Rafael", "city": "San Rafael", "zip_code": "94903", "country": "US", "state": "CA", "display_address": ["1010 Northgate Dr", "Four Points by Sheraton San Rafael", "San Rafael, CA 94903"]}, "phone": "+14154798800", "display_phone": "(415) 479-8800", "distance": 9414.099136968598}, {"id": "B0vo3Te2a0_Z2paRLDImMw", "alias": "wendys-petaluma", "name": "Wendy's", "image_url": "https://s3-media3.fl.yelpcdn.com/bphoto/0CkPna6hSqLBb87NAhqOQw/o.jpg", "is_closed": false, "url": "https://www.yelp.com/biz/wendys-petaluma?adjust_creative=K_rJo7VUP5JRiFo1Dydvmw&utm_campaign=yelp_api_v3&utm_medium=api_v3_business_search&utm_source=K_rJo7VUP5JRiFo1Dydvmw", "review_count": 37, "categories": [{"alias": "burgers", "title": "Burgers"}, {"alias": "hotdogs", "title": "Fast Food"}], "rating": 3.0, "coordinates": {"latitude": 38.2390937805176, "longitude": -122.634552001953}, "transactions": [], "price": "$", "location": {"address1": "500 E Washington St", "address2": "", "address3": "", "city": "Petaluma", "zip_code": "94952", "country": "US", "state": "CA", "display_address": ["500 E Washington St", "Petaluma, CA 94952"]}, "phone": "+17077624790", "display_phone": "(707) 762-4790", "distance": 17515.12951288714}, {"id": "Ad-tZjrBEvTHTvYpD3EpeA", "alias": "iron-springs-pub-and-brewery-fairfax", "name": "Iron Springs Pub & Brewery", "image_url": "https://s3-media2.fl.yelpcdn.com/bphoto/Wx4r8c9Hl1kqOJqHIys5Ig/o.jpg", "is_closed": false, "url": "https://www.yelp.com/biz/iron-springs-pub-and-brewery-fairfax?adjust_creative=K_rJo7VUP5JRiFo1Dydvmw&utm_campaign=yelp_api_v3&utm_medium=api_v3_business_search&utm_source=K_rJo7VUP5JRiFo1Dydvmw", "review_count": 335, "categories": [{"alias": "breweries", "title": "Breweries"}, {"alias": "pubs", "title": "Pubs"}, {"alias": "tradamerican", "title": "American (Traditional)"}], "rating": 4.0, "coordinates": {"latitude": 37.985995, "longitude": -122.5839888}, "transactions": ["delivery"], "price": "$$", "location": {"address1": "765 Center Blvd", "address2": "", "address3": "", "city": "Fairfax", "zip_code": "94930", "country": "US", "state": "CA", "display_address": ["765 Center Blvd", "Fairfax, CA 94930"]}, "phone": "+14154851005", "display_phone": "(415) 485-1005", "distance": 11982.896811274237}, {"id": "TND2gH2BO0KoRMUWdpxX3w", "alias": "lemongrass-thai-cuisine-petaluma", "name": "Lemongrass Thai Cuisine", "image_url": "https://s3-media2.fl.yelpcdn.com/bphoto/VLigeIxkQnhUNppzXs64GA/o.jpg", "is_closed": false, "url": "https://www.yelp.com/biz/lemongrass-thai-cuisine-petaluma?adjust_creative=K_rJo7VUP5JRiFo1Dydvmw&utm_campaign=yelp_api_v3&utm_medium=api_v3_business_search&utm_source=K_rJo7VUP5JRiFo1Dydvmw", "review_count": 348, "categories": [{"alias": "thai", "title": "Thai"}], "rating": 4.0, "coordinates": {"latitude": 38.2487024033913, "longitude": -122.626956469619}, "transactions": ["delivery", "pickup"], "price": "$$", "location": {"address1": "109 N McDowell Blvd", "address2": "", "address3": "", "city": "Petaluma", "zip_code": "94954", "country": "US", "state": "CA", "display_address": ["109 N McDowell Blvd", "Petaluma, CA 94954"]}, "phone": "+17077899777", "display_phone": "(707) 789-9777", "distance": 18284.229978835374}, {"id": "GQUK4LSHFJy_VKMOxwVPpg", "alias": "village-sake-fairfax", "name": "Village Sake", "image_url": "https://s3-media4.fl.yelpcdn.com/bphoto/rOlp-G2wUzz-JlGjNbnS5Q/o.jpg", "is_closed": false, "url": "https://www.yelp.com/biz/village-sake-fairfax?adjust_creative=K_rJo7VUP5JRiFo1Dydvmw&utm_campaign=yelp_api_v3&utm_medium=api_v3_business_search&utm_source=K_rJo7VUP5JRiFo1Dydvmw", "review_count": 184, "categories": [{"alias": "japanese", "title": "Japanese"}, {"alias": "pubs", "title": "Pubs"}, {"alias": "sushi", "title": "Sushi Bars"}], "rating": 4.0, "coordinates": {"latitude": 37.98671, "longitude": -122.58884}, "transactions": ["delivery"], "price": "$$$", "location": {"address1": "19 Bolinas Rd", "address2": null, "address3": "", "city": "Fairfax", "zip_code": "94930", "country": "US", "state": "CA", "display_address": ["19 Bolinas Rd", "Fairfax, CA 94930"]}, "phone": "+14155215790", "display_phone": "(415) 521-5790", "distance": 11989.380466865727}, {"id": "L0unAXIIKcqQrAvtMNb3hg", "alias": "fox-and-kit-san-rafael", "name": "Fox & Kit", "image_url": "https://s3-media1.fl.yelpcdn.com/bphoto/2yV6eoHcpXnRD4a--U8iQA/o.jpg", "is_closed": false, "url": "https://www.yelp.com/biz/fox-and-kit-san-rafael?adjust_creative=K_rJo7VUP5JRiFo1Dydvmw&utm_campaign=yelp_api_v3&utm_medium=api_v3_business_search&utm_source=K_rJo7VUP5JRiFo1Dydvmw", "review_count": 126, "categories": [{"alias": "coffee", "title": "Coffee & Tea"}, {"alias": "indoor_playcenter", "title": "Indoor Playcentre"}], "rating": 4.0, "coordinates": {"latitude": 37.97402, "longitude": -122.5308}, "transactions": [], "price": "$$", "location": {"address1": "1031 C St", "address2": null, "address3": "", "city": "San Rafael", "zip_code": "94901", "country": "US", "state": "CA", "display_address": ["1031 C St", "San Rafael, CA 94901"]}, "phone": "+14159915061", "display_phone": "(415) 991-5061", "distance": 13436.431490032825}, {"id": "WgnVI0xFYZUFWeMmuGuHXw", "alias": "whole-foods-market-novato-8", "name": "Whole Foods Market", "image_url": "https://s3-media1.fl.yelpcdn.com/bphoto/EGSc9mSbIx5uhtUvxBhC5g/o.jpg", "is_closed": false, "url": "https://www.yelp.com/biz/whole-foods-market-novato-8?adjust_creative=K_rJo7VUP5JRiFo1Dydvmw&utm_campaign=yelp_api_v3&utm_medium=api_v3_business_search&utm_source=K_rJo7VUP5JRiFo1Dydvmw", "review_count": 175, "categories": [{"alias": "grocery", "title": "Grocery"}, {"alias": "healthmarkets", "title": "Health Markets"}, {"alias": "organic_stores", "title": "Organic Stores"}], "rating": 3.5, "coordinates": {"latitude": 38.1058, "longitude": -122.56585}, "transactions": [], "price": "$$", "location": {"address1": "790 De Long Ave", "address2": "", "address3": "", "city": "Novato", "zip_code": "94945", "country": "US", "state": "CA", "display_address": ["790 De Long Ave", "Novato, CA 94945"]}, "phone": "+14158780455", "display_phone": "(415) 878-0455", "distance": 1540.1779305817317}, {"id": "BRbA4wLdXoQCmwXRzs3ozQ", "alias": "little-mandarin-san-rafael", "name": "Little Mandarin", "image_url": "https://s3-media3.fl.yelpcdn.com/bphoto/0U2nCI6bfXkO6Nshm_NFEA/o.jpg", "is_closed": false, "url": "https://www.yelp.com/biz/little-mandarin-san-rafael?adjust_creative=K_rJo7VUP5JRiFo1Dydvmw&utm_campaign=yelp_api_v3&utm_medium=api_v3_business_search&utm_source=K_rJo7VUP5JRiFo1Dydvmw", "review_count": 174, "categories": [{"alias": "chinese", "title": "Chinese"}], "rating": 4.0, "coordinates": {"latitude": 37.97128, "longitude": -122.5204}, "transactions": ["delivery"], "price": "$", "location": {"address1": "536 3rd St", "address2": null, "address3": "", "city": "San Rafael", "zip_code": "94901", "country": "US", "state": "CA", "display_address": ["536 3rd St", "San Rafael, CA 94901"]}, "phone": "+14154850888", "display_phone": "(415) 485-0888", "distance": 13944.95725358851}, {"id": "ytDqNOOgQkKrX9l3MsYEHw", "alias": "trattoria-roma-petaluma", "name": "Trattoria Roma", "image_url": "https://s3-media4.fl.yelpcdn.com/bphoto/DSto99AWsCV8nB8W4zY9cQ/o.jpg", "is_closed": false, "url": "https://www.yelp.com/biz/trattoria-roma-petaluma?adjust_creative=K_rJo7VUP5JRiFo1Dydvmw&utm_campaign=yelp_api_v3&utm_medium=api_v3_business_search&utm_source=K_rJo7VUP5JRiFo1Dydvmw", "review_count": 91, "categories": [{"alias": "italian", "title": "Italian"}], "rating": 4.5, "coordinates": {"latitude": 38.233289, "longitude": -122.637429}, "transactions": [], "price": "$$", "location": {"address1": "140 2nd St", "address2": "", "address3": null, "city": "Petaluma", "zip_code": "94952", "country": "US", "state": "CA", "display_address": ["140 2nd St", "Petaluma, CA 94952"]}, "phone": "+17079817807", "display_phone": "(707) 981-7807", "distance": 16996.851183531457}], "total": 1100, "region": {"center": {"longitude": -122.56210327148438, "latitude": 38.092372469871066}}}