{"businesses": [{"id": "d-XXhgzcZlYne_UWX6umaA", "alias": "the-republic-of-tea-novato-3", "name": "The Republic of Tea", "image_url": "https://s3-media1.fl.yelpcdn.com/bphoto/ZETLXfAAq1MLVUiNFnOhMw/o.jpg", "is_closed": false, "url": "https://www.yelp.com/biz/the-republic-of-tea-novato-3?adjust_creative=K_rJo7VUP5JRiFo1Dydvmw&utm_campaign=yelp_api_v3&utm_medium=api_v3_business_search&utm_source=K_rJo7VUP5JRiFo1Dydvmw", "review_count": 7, "categories": [{"alias": "coffee", "title": "Coffee & Tea"}], "rating": 4.0, "coordinates": {"latitude": 38.058031, "longitude": -122.513692}, "transactions": [], "price": "$$", "location": {"address1": "5 Hamilton Landing", "address2": "Ste 100", "address3": "", "city": "Novato", "zip_code": "94949", "country": "US", "state": "CA", "display_address": ["5 Hamilton Landing", "Ste 100", "Novato, CA 94949"]}, "phone": "+18002984832", "display_phone": "(800) 298-4832", "distance": 5704.077721333038}, {"id": "T7UtXPCIk7fUiaIzq8arWA", "alias": "perrys-delicatessen-no-3-fairfax", "name": "Perry's Delicatessen No 3", "image_url": "https://s3-media2.fl.yelpcdn.com/bphoto/PIsS40Z9Qc5Hr0JGmmxBLw/o.jpg", "is_closed": false, "url": "https://www.yelp.com/biz/perrys-delicatessen-no-3-fairfax?adjust_creative=K_rJo7VUP5JRiFo1Dydvmw&utm_campaign=yelp_api_v3&utm_medium=api_v3_business_search&utm_source=K_rJo7VUP5JRiFo1Dydvmw", "review_count": 57, "categories": [{"alias": "delis", "title": "Delis"}], "rating": 3.5, "coordinates": {"latitude": 37.98754, "longitude": -122.58866}, "transactions": ["delivery"], "price": "$", "location": {"address1": "1916 Sir Francis Drake Blvd", "address2": "", "address3": "", "city": "Fairfax", "zip_code": "94930", "country": "US", "state": "CA", "display_address": ["1916 Sir Francis Drake Blvd", "Fairfax, CA 94930"]}, "phone": "+14154563580", "display_phone": "(415) 456-3580", "distance": 11891.022793191534}, {"id": "9hg66g48wrnOr1SWabm_VA", "alias": "indian-valley-19th-hole-bar-and-grill-novato", "name": "Indian Valley 19th Hole Bar & Grill", "image_url": "https://s3-media2.fl.yelpcdn.com/bphoto/3JosIzVWOj8mPj3ZFcGoyA/o.jpg", "is_closed": false, "url": "https://www.yelp.com/biz/indian-valley-19th-hole-bar-and-grill-novato?adjust_creative=K_rJo7VUP5JRiFo1Dydvmw&utm_campaign=yelp_api_v3&utm_medium=api_v3_business_search&utm_source=K_rJo7VUP5JRiFo1Dydvmw", "review_count": 7, "categories": [{"alias": "tradamerican", "title": "American (Traditional)"}], "rating": 4.0, "coordinates": {"latitude": 38.1204853, "longitude": -122.6356504}, "transactions": [], "price": "$$", "location": {"address1": "3035 Novato Blvd", "address2": "", "address3": "", "city": "Novato", "zip_code": "94947", "country": "US", "state": "CA", "display_address": ["3035 Novato Blvd", "Novato, CA 94947"]}, "phone": "+14158925885", "display_phone": "(415) 892-5885", "distance": 7160.9767469957615}, {"id": "AldeLiumiYfyqLAPvcJGAw", "alias": "kfc-san-rafael-2", "name": "KFC", "image_url": "https://s3-media2.fl.yelpcdn.com/bphoto/OnIcECaBbEFxTK8jA-9v1A/o.jpg", "is_closed": false, "url": "https://www.yelp.com/biz/kfc-san-rafael-2?adjust_creative=K_rJo7VUP5JRiFo1Dydvmw&utm_campaign=yelp_api_v3&utm_medium=api_v3_business_search&utm_source=K_rJo7VUP5JRiFo1Dydvmw", "review_count": 45, "categories": [{"alias": "hotdogs", "title": "Fast Food"}, {"alias": "chicken_wings", "title": "Chicken Wings"}, {"alias": "chickenshop", "title": "Chicken Shop"}], "rating": 2.5, "coordinates": {"latitude": 37.9701555485811, "longitude": -122.520155072999}, "transactions": ["pickup", "delivery"], "price": "$", "location": {"address1": "555 2nd St", "address2": "", "address3": "", "city": "San Rafael", "zip_code": "94901", "country": "US", "state": "CA", "display_address": ["555 2nd St", "San Rafael, CA 94901"]}, "phone": "+14154541482", "display_phone": "(415) 454-1482", "distance": 14077.770484236}, {"id": "V7PmSGJ1-AAEBjdHTbzhLA", "alias": "terrapin-crossroads-san-rafael", "name": "Terrapin Crossroads", "image_url": "https://s3-media1.fl.yelpcdn.com/bphoto/agkBLZQhw7v9A8cUtX5gSw/o.jpg", "is_closed": false, "url": "https://www.yelp.com/biz/terrapin-crossroads-san-rafael?adjust_creative=K_rJo7VUP5JRiFo1Dydvmw&utm_campaign=yelp_api_v3&utm_medium=api_v3_business_search&utm_source=K_rJo7VUP5JRiFo1Dydvmw", "review_count": 753, "categories": [{"alias": "newamerican", "title": "American (New)"}], "rating": 3.5, "coordinates": {"latitude": 37.967806, "longitude": -122.516557}, "transactions": ["delivery"], "price": "$$", "location": {"address1": "100 Yacht Club Dr", "address2": "", "address3": "", "city": "San Rafael", "zip_code": "94901", "country": "US", "state": "CA", "display_address": ["100 Yacht Club Dr", "San Rafael, CA 94901"]}, "phone": "+14155242773", "display_phone": "(415) 524-2773", "distance": 14414.169604520222}, {"id": "D8DCqnBoQZBOwRLhyniaUg", "alias": "marin-brewing-company-larkspur", "name": "Marin Brewing Company", "image_url": "https://s3-media1.fl.yelpcdn.com/bphoto/TeLmmE-xB6pMqw-dACj8BA/o.jpg", "is_closed": false, "url": "https://www.yelp.com/biz/marin-brewing-company-larkspur?adjust_creative=K_rJo7VUP5JRiFo1Dydvmw&utm_campaign=yelp_api_v3&utm_medium=api_v3_business_search&utm_source=K_rJo7VUP5JRiFo1Dydvmw", "review_count": 809, "categories": [{"alias": "breweries", "title": "Breweries"}, {"alias": "tradamerican", "title": "American (Traditional)"}], "rating": 3.0, "coordinates": {"latitude": 37.9475358029827, "longitude": -122.509617441589}, "transactions": ["delivery"], "price": "$$", "location": {"address1": "1809 Larkspur Landing Cir", "address2": "", "address3": "", "city": "Larkspur", "zip_code": "94939", "country": "US", "state": "CA", "display_address": ["1809 Larkspur Landing Cir", "Larkspur, CA 94939"]}, "phone": "+14154614677", "display_phone": "(415) 461-4677", "distance": 16748.50895426747}, {"id": "EvLHj5d1ooJW8Ek8uHR1Tg", "alias": "della-fattoria-downtown-caf\u00e9-petaluma-4", "name": "Della Fattoria Downtown Caf\u00e9", "image_url": "https://s3-media1.fl.yelpcdn.com/bphoto/fYQzXXDh-EwGHNB7M7cg1g/o.jpg", "is_closed": false, "url": "https://www.yelp.com/biz/della-fattoria-downtown-caf%C3%A9-petaluma-4?adjust_creative=K_rJo7VUP5JRiFo1Dydvmw&utm_campaign=yelp_api_v3&utm_medium=api_v3_business_search&utm_source=K_rJo7VUP5JRiFo1Dydvmw", "review_count": 870, "categories": [{"alias": "bakeries", "title": "Bakeries"}, {"alias": "breakfast_brunch", "title": "Breakfast & Brunch"}, {"alias": "coffee", "title": "Coffee & Tea"}], "rating": 4.0, "coordinates": {"latitude": 38.23492, "longitude": -122.64102}, "transactions": [], "price": "$$", "location": {"address1": "141 Petaluma Blvd N", "address2": null, "address3": "", "city": "Petaluma", "zip_code": "94952", "country": "US", "state": "CA", "display_address": ["141 Petaluma Blvd N", "Petaluma, CA 94952"]}, "phone": "+17077630161", "display_phone": "(707) 763-0161", "distance": 17288.24493322663}, {"id": "0Qma8dhIXI8FNspyhmxWrg", "alias": "rays-deli-and-tavern-petaluma", "name": "Ray's Deli and Tavern", "image_url": "https://s3-media2.fl.yelpcdn.com/bphoto/wQgzHbI6zkD1mv51tqi2JA/o.jpg", "is_closed": false, "url": "https://www.yelp.com/biz/rays-deli-and-tavern-petaluma?adjust_creative=K_rJo7VUP5JRiFo1Dydvmw&utm_campaign=yelp_api_v3&utm_medium=api_v3_business_search&utm_source=K_rJo7VUP5JRiFo1Dydvmw", "review_count": 248, "categories": [{"alias": "delis", "title": "Delis"}, {"alias": "pubs", "title": "Pubs"}, {"alias": "sandwiches", "title": "Sandwiches"}], "rating": 4.5, "coordinates": {"latitude": 38.23028, "longitude": -122.65291}, "transactions": [], "price": "$$", "location": {"address1": "900 Western Ave", "address2": "", "address3": "", "city": "Petaluma", "zip_code": "94952", "country": "US", "state": "CA", "display_address": ["900 Western Ave", "Petaluma, CA 94952"]}, "phone": "+17077629492", "display_phone": "(707) 762-9492", "distance": 17253.481592736884}, {"id": "0k9eBdl73tYPVPABh5Qh2w", "alias": "navas-patisserie-novato-4", "name": "Navas Patisserie", "image_url": "https://s3-media4.fl.yelpcdn.com/bphoto/ta-H9is7MFjFfDr5sVhPqA/o.jpg", "is_closed": false, "url": "https://www.yelp.com/biz/navas-patisserie-novato-4?adjust_creative=K_rJo7VUP5JRiFo1Dydvmw&utm_campaign=yelp_api_v3&utm_medium=api_v3_business_search&utm_source=K_rJo7VUP5JRiFo1Dydvmw", "review_count": 2, "categories": [{"alias": "catering", "title": "Caterers"}, {"alias": "desserts", "title": "Desserts"}], "rating": 5.0, "coordinates": {"latitude": 38.06815, "longitude": -122.53662}, "transactions": [], "location": {"address1": "", "address2": "", "address3": null, "city": "Novato", "zip_code": "94949", "country": "US", "state": "CA", "display_address": ["Novato, CA 94949"]}, "phone": "+17074308024", "display_phone": "(707) 430-8024", "distance": 6279.944615908448}, {"id": "9AxRS4mSKY6zEdXYPnz78g", "alias": "alfredos-italian-restaurant-petaluma", "name": "Alfredo's Italian Restaurant", "image_url": "https://s3-media2.fl.yelpcdn.com/bphoto/nK2d6pD1LqnwBKKcpL-70Q/o.jpg", "is_closed": false, "url": "https://www.yelp.com/biz/alfredos-italian-restaurant-petaluma?adjust_creative=K_rJo7VUP5JRiFo1Dydvmw&utm_campaign=yelp_api_v3&utm_medium=api_v3_business_search&utm_source=K_rJo7VUP5JRiFo1Dydvmw", "review_count": 242, "categories": [{"alias": "italian", "title": "Italian"}], "rating": 4.5, "coordinates": {"latitude": 38.2499355, "longitude": -122.6250415}, "transactions": ["pickup", "delivery"], "price": "$$", "location": {"address1": "1426 E Washington St", "address2": null, "address3": "", "city": "Petaluma", "zip_code": "94954", "country": "US", "state": "CA", "display_address": ["1426 E Washington St", "Petaluma, CA 94954"]}, "phone": "+17077820500", "display_phone": "(707) 782-0500", "distance": 18357.266770172606}, {"id": "9lc3AcIuWbZI_Ju459k6JQ", "alias": "fradelizios-in-fairfax-fairfax", "name": "Fradelizio's in Fairfax", "image_url": "https://s3-media3.fl.yelpcdn.com/bphoto/xj77-4tpwuPHtl9dGEwdZw/o.jpg", "is_closed": false, "url": "https://www.yelp.com/biz/fradelizios-in-fairfax-fairfax?adjust_creative=K_rJo7VUP5JRiFo1Dydvmw&utm_campaign=yelp_api_v3&utm_medium=api_v3_business_search&utm_source=K_rJo7VUP5JRiFo1Dydvmw", "review_count": 217, "categories": [{"alias": "italian", "title": "Italian"}], "rating": 4.0, "coordinates": {"latitude": 37.9869385, "longitude": -122.5887439}, "transactions": ["delivery"], "price": "$$", "location": {"address1": "35 Broadway Blvd", "address2": "", "address3": "", "city": "Fairfax", "zip_code": "94930", "country": "US", "state": "CA", "display_address": ["35 Broadway Blvd", "Fairfax, CA 94930"]}, "phone": "+14154591618", "display_phone": "(415) 459-1618", "distance": 11953.599234163077}, {"id": "zIXfcQDmTKed1ydOB7dPFA", "alias": "woodacre-country-market-and-deli-woodacre", "name": "Woodacre Country Market & Deli", "image_url": "https://s3-media2.fl.yelpcdn.com/bphoto/6frPppLNfZDRmP22TmDXQg/o.jpg", "is_closed": false, "url": "https://www.yelp.com/biz/woodacre-country-market-and-deli-woodacre?adjust_creative=K_rJo7VUP5JRiFo1Dydvmw&utm_campaign=yelp_api_v3&utm_medium=api_v3_business_search&utm_source=K_rJo7VUP5JRiFo1Dydvmw", "review_count": 24, "categories": [{"alias": "grocery", "title": "Grocery"}, {"alias": "delis", "title": "Delis"}], "rating": 4.0, "coordinates": {"latitude": 38.0130701512098, "longitude": -122.643513679504}, "transactions": [], "price": "$", "location": {"address1": "175 San Geronimo Valley Dr", "address2": "", "address3": "", "city": "Woodacre", "zip_code": "94973", "country": "US", "state": "CA", "display_address": ["175 San Geronimo Valley Dr", "Woodacre, CA 94973"]}, "phone": "+14154889064", "display_phone": "(415) 488-9064", "distance": 11350.712839761049}, {"id": "-A8TKg-9eAeufAqqVcFn2A", "alias": "split-rock-tap-and-wheel-fairfax", "name": "Split Rock Tap & Wheel", "image_url": "https://s3-media4.fl.yelpcdn.com/bphoto/F1dzzsHl_UGjXniFg-SkCQ/o.jpg", "is_closed": false, "url": "https://www.yelp.com/biz/split-rock-tap-and-wheel-fairfax?adjust_creative=K_rJo7VUP5JRiFo1Dydvmw&utm_campaign=yelp_api_v3&utm_medium=api_v3_business_search&utm_source=K_rJo7VUP5JRiFo1Dydvmw", "review_count": 39, "categories": [{"alias": "pubs", "title": "Pubs"}, {"alias": "cafes", "title": "Cafes"}, {"alias": "bike_repair_maintenance", "title": "Bike Repair/Maintenance"}], "rating": 4.5, "coordinates": {"latitude": 37.98845, "longitude": -122.59053}, "transactions": [], "location": {"address1": "2020 Sir Francis Drake Blvd", "address2": "", "address3": null, "city": "Fairfax", "zip_code": "94930", "country": "US", "state": "CA", "display_address": ["2020 Sir Francis Drake Blvd", "Fairfax, CA 94930"]}, "phone": "+14157217644", "display_phone": "(415) 721-7644", "distance": 11837.606329926562}, {"id": "e8EmGikI0tSiTKoAlmUBQg", "alias": "pressed-juicery-larkspur", "name": "Pressed Juicery", "image_url": "https://s3-media1.fl.yelpcdn.com/bphoto/RUNDwcfBUvY189bIhBjHyw/o.jpg", "is_closed": false, "url": "https://www.yelp.com/biz/pressed-juicery-larkspur?adjust_creative=K_rJo7VUP5JRiFo1Dydvmw&utm_campaign=yelp_api_v3&utm_medium=api_v3_business_search&utm_source=K_rJo7VUP5JRiFo1Dydvmw", "review_count": 55, "categories": [{"alias": "convenience", "title": "Convenience Stores"}, {"alias": "vegan", "title": "Vegan"}, {"alias": "healthmarkets", "title": "Health Markets"}], "rating": 4.0, "coordinates": {"latitude": 37.9459076719907, "longitude": -122.511584946173}, "transactions": ["pickup", "delivery"], "price": "$$", "location": {"address1": "2205 Larkspur Landing Cir", "address2": "Bldg 21", "address3": "", "city": "Larkspur", "zip_code": "94939", "country": "US", "state": "CA", "display_address": ["2205 Larkspur Landing Cir", "Bldg 21", "Larkspur, CA 94939"]}, "phone": "+14159251301", "display_phone": "(415) 925-1301", "distance": 16876.668856242297}, {"id": "8TWVySq5-RUbWL2uVSRigg", "alias": "quinua-restaurant-cocina-peruana-petaluma", "name": "Quinua Restaurant Cocina Peruana", "image_url": "https://s3-media1.fl.yelpcdn.com/bphoto/LFYOB6IaAZ5K2B3Cl-OnLw/o.jpg", "is_closed": false, "url": "https://www.yelp.com/biz/quinua-restaurant-cocina-peruana-petaluma?adjust_creative=K_rJo7VUP5JRiFo1Dydvmw&utm_campaign=yelp_api_v3&utm_medium=api_v3_business_search&utm_source=K_rJo7VUP5JRiFo1Dydvmw", "review_count": 199, "categories": [{"alias": "peruvian", "title": "Peruvian"}, {"alias": "diners", "title": "Diners"}, {"alias": "wine_bars", "title": "Wine Bars"}], "rating": 4.0, "coordinates": {"latitude": 38.2307944, "longitude": -122.6329231}, "transactions": [], "price": "$$", "location": {"address1": "500 Petaluma Blvd S", "address2": "", "address3": "", "city": "Petaluma", "zip_code": "94952", "country": "US", "state": "CA", "display_address": ["500 Petaluma Blvd S", "Petaluma, CA 94952"]}, "phone": "+17077767789", "display_phone": "(707) 776-7789", "distance": 16589.545773268204}, {"id": "sytfv3VT77vzGRqrS7RFLA", "alias": "calgang-thai-eatery-san-rafael-3", "name": "Calgang Thai Eatery", "image_url": "https://s3-media4.fl.yelpcdn.com/bphoto/Q_Q6XGBixZ5joBSN6NRtJQ/o.jpg", "is_closed": false, "url": "https://www.yelp.com/biz/calgang-thai-eatery-san-rafael-3?adjust_creative=K_rJo7VUP5JRiFo1Dydvmw&utm_campaign=yelp_api_v3&utm_medium=api_v3_business_search&utm_source=K_rJo7VUP5JRiFo1Dydvmw", "review_count": 234, "categories": [{"alias": "thai", "title": "Thai"}], "rating": 3.0, "coordinates": {"latitude": 38.0075717182186, "longitude": -122.546571193144}, "transactions": ["pickup", "delivery"], "price": "$$", "location": {"address1": "194 Northgate One", "address2": "", "address3": "", "city": "San Rafael", "zip_code": "94903", "country": "US", "state": "CA", "display_address": ["194 Northgate One", "San Rafael, CA 94903"]}, "phone": "+14154993501", "display_phone": "(415) 499-3501", "distance": 9526.979197390969}, {"id": "pAyqc4xjzrp701CxYiLrRA", "alias": "taco-bell-petaluma", "name": "Taco Bell", "image_url": "https://s3-media4.fl.yelpcdn.com/bphoto/MVWe1BQBju-tFxxhr9h0GA/o.jpg", "is_closed": false, "url": "https://www.yelp.com/biz/taco-bell-petaluma?adjust_creative=K_rJo7VUP5JRiFo1Dydvmw&utm_campaign=yelp_api_v3&utm_medium=api_v3_business_search&utm_source=K_rJo7VUP5JRiFo1Dydvmw", "review_count": 111, "categories": [{"alias": "tacos", "title": "Tacos"}, {"alias": "breakfast_brunch", "title": "Breakfast & Brunch"}], "rating": 2.0, "coordinates": {"latitude": 38.23811, "longitude": -122.635559}, "transactions": [], "price": "$", "location": {"address1": "406 East Washington Street", "address2": "", "address3": "", "city": "Petaluma", "zip_code": "94952", "country": "US", "state": "CA", "display_address": ["406 East Washington Street", "Petaluma, CA 94952"]}, "phone": "+17077636200", "display_phone": "(707) 763-6200", "distance": 17431.309216396403}, {"id": "g7bwch9_I5nuU3bWPWz29A", "alias": "marin-community-farm-stand-and-csa-forest-knolls", "name": "Marin Community Farm Stand & CSA", "image_url": "https://s3-media3.fl.yelpcdn.com/bphoto/hqi1INr3VoLf4tZdI-YEiA/o.jpg", "is_closed": false, "url": "https://www.yelp.com/biz/marin-community-farm-stand-and-csa-forest-knolls?adjust_creative=K_rJo7VUP5JRiFo1Dydvmw&utm_campaign=yelp_api_v3&utm_medium=api_v3_business_search&utm_source=K_rJo7VUP5JRiFo1Dydvmw", "review_count": 25, "categories": [{"alias": "farmersmarket", "title": "Farmers Market"}, {"alias": "seafoodmarkets", "title": "Seafood Markets"}, {"alias": "meats", "title": "Meat Shops"}], "rating": 5.0, "coordinates": {"latitude": 38.0157360220071, "longitude": -122.68495246768}, "transactions": [], "price": "$$", "location": {"address1": "6700 Sir Francis Drake Blvd", "address2": "", "address3": null, "city": "Forest Knolls", "zip_code": "94933", "country": "US", "state": "CA", "display_address": ["6700 Sir Francis Drake Blvd", "Forest Knolls, CA 94933"]}, "phone": "+14154979496", "display_phone": "(415) 497-9496", "distance": 13722.906293079215}, {"id": "b0A02pw1yS445Rbmnzqg_g", "alias": "the-bagel-mill-petaluma", "name": "The Bagel Mill", "image_url": "https://s3-media1.fl.yelpcdn.com/bphoto/YwSabzU2ahK41BjIiiy6rg/o.jpg", "is_closed": false, "url": "https://www.yelp.com/biz/the-bagel-mill-petaluma?adjust_creative=K_rJo7VUP5JRiFo1Dydvmw&utm_campaign=yelp_api_v3&utm_medium=api_v3_business_search&utm_source=K_rJo7VUP5JRiFo1Dydvmw", "review_count": 82, "categories": [{"alias": "bagels", "title": "Bagels"}, {"alias": "bakeries", "title": "Bakeries"}, {"alias": "breakfast_brunch", "title": "Breakfast & Brunch"}], "rating": 4.5, "coordinates": {"latitude": 38.23342, "longitude": -122.642647}, "transactions": [], "price": "$", "location": {"address1": "212 Western Ave", "address2": null, "address3": "", "city": "Petaluma", "zip_code": "94952", "country": "US", "state": "CA", "display_address": ["212 Western Ave", "Petaluma, CA 94952"]}, "phone": "+17079818010", "display_phone": "(707) 981-8010", "distance": 17199.95687574755}, {"id": "YPMGLsbOvBNxn6nxiSZumw", "alias": "tea-room-cafe-petaluma-4", "name": "Tea Room Cafe", "image_url": "https://s3-media2.fl.yelpcdn.com/bphoto/0iVmJTbiHV4_KYPENaXYFA/o.jpg", "is_closed": false, "url": "https://www.yelp.com/biz/tea-room-cafe-petaluma-4?adjust_creative=K_rJo7VUP5JRiFo1Dydvmw&utm_campaign=yelp_api_v3&utm_medium=api_v3_business_search&utm_source=K_rJo7VUP5JRiFo1Dydvmw", "review_count": 490, "categories": [{"alias": "coffee", "title": "Coffee & Tea"}, {"alias": "breakfast_brunch", "title": "Breakfast & Brunch"}, {"alias": "bakeries", "title": "Bakeries"}], "rating": 4.0, "coordinates": {"latitude": 38.23313, "longitude": -122.643503}, "transactions": [], "price": "$$", "location": {"address1": "316 Western Ave", "address2": "", "address3": "", "city": "Petaluma", "zip_code": "94952", "country": "US", "state": "CA", "display_address": ["316 Western Ave", "Petaluma, CA 94952"]}, "phone": "+17077650199", "display_phone": "(707) 765-0199", "distance": 17193.476868012185}, {"id": "aJOcS-6zhsHg0uEjpJqgSA", "alias": "jasons-restaurant-greenbrae-2", "name": "Jason's Restaurant", "image_url": "https://s3-media2.fl.yelpcdn.com/bphoto/82VJ8dt4NIJTuz0-PKhgYw/o.jpg", "is_closed": false, "url": "https://www.yelp.com/biz/jasons-restaurant-greenbrae-2?adjust_creative=K_rJo7VUP5JRiFo1Dydvmw&utm_campaign=yelp_api_v3&utm_medium=api_v3_business_search&utm_source=K_rJo7VUP5JRiFo1Dydvmw", "review_count": 358, "categories": [{"alias": "italian", "title": "Italian"}, {"alias": "asianfusion", "title": "Asian Fusion"}, {"alias": "bars", "title": "Bars"}], "rating": 4.0, "coordinates": {"latitude": 37.94235, "longitude": -122.51889}, "transactions": ["delivery"], "price": "$$", "location": {"address1": "300 Drakes Landing Rd", "address2": null, "address3": "", "city": "Greenbrae", "zip_code": "94904", "country": "US", "state": "CA", "display_address": ["300 Drakes Landing Rd", "Greenbrae, CA 94904"]}, "phone": "+14159250808", "display_phone": "(415) 925-0808", "distance": 17106.185162311842}, {"id": "Cal_Aaa0CJ6q5QUQcfYIrw", "alias": "dine-in-marin-petaluma-3", "name": "Dine-In Marin", "image_url": "https://s3-media1.fl.yelpcdn.com/bphoto/56zXg1a1gID97uttt2m3HQ/o.jpg", "is_closed": false, "url": "https://www.yelp.com/biz/dine-in-marin-petaluma-3?adjust_creative=K_rJo7VUP5JRiFo1Dydvmw&utm_campaign=yelp_api_v3&utm_medium=api_v3_business_search&utm_source=K_rJo7VUP5JRiFo1Dydvmw", "review_count": 8, "categories": [{"alias": "fooddeliveryservices", "title": "Food Delivery Services"}, {"alias": "soup", "title": "Soup"}], "rating": 2.5, "coordinates": {"latitude": 38.2309842388269, "longitude": -122.631741128862}, "transactions": [], "location": {"address1": "1036 Garfield Dr", "address2": "", "address3": null, "city": "Petaluma", "zip_code": "94954", "country": "US", "state": "CA", "display_address": ["1036 Garfield Dr", "Petaluma, CA 94954"]}, "phone": "+14159279007", "display_phone": "(415) 927-9007", "distance": 16571.845635694364}, {"id": "u0Hkh8tP2iZxv_cfzK7U4g", "alias": "thai-smile-cuisine-san-rafael", "name": "Thai Smile Cuisine", "image_url": "https://s3-media2.fl.yelpcdn.com/bphoto/IyNZEQnXCk2AMI6uyVIq4Q/o.jpg", "is_closed": false, "url": "https://www.yelp.com/biz/thai-smile-cuisine-san-rafael?adjust_creative=K_rJo7VUP5JRiFo1Dydvmw&utm_campaign=yelp_api_v3&utm_medium=api_v3_business_search&utm_source=K_rJo7VUP5JRiFo1Dydvmw", "review_count": 256, "categories": [{"alias": "thai", "title": "Thai"}], "rating": 4.0, "coordinates": {"latitude": 37.97236, "longitude": -122.52019}, "transactions": ["delivery"], "price": "$$", "location": {"address1": "534 4th St", "address2": null, "address3": "", "city": "San Rafael", "zip_code": "94901", "country": "US", "state": "CA", "display_address": ["534 4th St", "San Rafael, CA 94901"]}, "phone": "+14154542626", "display_phone": "(415) 454-2626", "distance": 13839.823850774786}, {"id": "7u-8nSOyftRG8020H1RUIQ", "alias": "big-rock-mini-mart-and-deli-san-rafael", "name": "Big Rock Mini Mart & Deli", "image_url": "https://s3-media3.fl.yelpcdn.com/bphoto/G2pdcjtFaFPCoZffxtIe7g/o.jpg", "is_closed": false, "url": "https://www.yelp.com/biz/big-rock-mini-mart-and-deli-san-rafael?adjust_creative=K_rJo7VUP5JRiFo1Dydvmw&utm_campaign=yelp_api_v3&utm_medium=api_v3_business_search&utm_source=K_rJo7VUP5JRiFo1Dydvmw", "review_count": 42, "categories": [{"alias": "grocery", "title": "Grocery"}, {"alias": "delis", "title": "Delis"}, {"alias": "pizza", "title": "Pizza"}], "rating": 4.0, "coordinates": {"latitude": 38.0255713104506, "longitude": -122.569119930267}, "transactions": ["pickup", "delivery"], "price": "$$", "location": {"address1": "1500 Lucas Valley Rd", "address2": "", "address3": "", "city": "San Rafael", "zip_code": "94903", "country": "US", "state": "CA", "display_address": ["1500 Lucas Valley Rd", "San Rafael, CA 94903"]}, "phone": "+14154910547", "display_phone": "(415) 491-0547", "distance": 7453.30214238519}, {"id": "0os5245Ln5hGE8OxPRf2Xg", "alias": "andys-sun-valley-market-san-rafael-2", "name": "Andy's Sun Valley Market", "image_url": "https://s3-media2.fl.yelpcdn.com/bphoto/KB_XSFsIlgFQyBvZSc1xJg/o.jpg", "is_closed": false, "url": "https://www.yelp.com/biz/andys-sun-valley-market-san-rafael-2?adjust_creative=K_rJo7VUP5JRiFo1Dydvmw&utm_campaign=yelp_api_v3&utm_medium=api_v3_business_search&utm_source=K_rJo7VUP5JRiFo1Dydvmw", "review_count": 49, "categories": [{"alias": "grocery", "title": "Grocery"}, {"alias": "delis", "title": "Delis"}], "rating": 4.5, "coordinates": {"latitude": 37.98228, "longitude": -122.54772}, "transactions": [], "price": "$$", "location": {"address1": "2202 5th Ave", "address2": "", "address3": "", "city": "San Rafael", "zip_code": "94901", "country": "US", "state": "CA", "display_address": ["2202 5th Ave", "San Rafael, CA 94901"]}, "phone": "+14154565731", "display_phone": "(415) 456-5731", "distance": 12312.494073570531}, {"id": "l6wMI3_QYw0_NAxqUAr6nA", "alias": "sharetea-san-rafael-3", "name": "Sharetea", "image_url": "https://s3-media1.fl.yelpcdn.com/bphoto/gH68nfTQpaYo2Bv-Ti2jug/o.jpg", "is_closed": false, "url": "https://www.yelp.com/biz/sharetea-san-rafael-3?adjust_creative=K_rJo7VUP5JRiFo1Dydvmw&utm_campaign=yelp_api_v3&utm_medium=api_v3_business_search&utm_source=K_rJo7VUP5JRiFo1Dydvmw", "review_count": 115, "categories": [{"alias": "bubbletea", "title": "Bubble Tea"}, {"alias": "coffee", "title": "Coffee & Tea"}, {"alias": "juicebars", "title": "Juice Bars & Smoothies"}], "rating": 3.5, "coordinates": {"latitude": 37.9717057943344, "longitude": -122.518760114908}, "transactions": [], "price": "$", "location": {"address1": "967 Grand Ave", "address2": "", "address3": null, "city": "San Rafael", "zip_code": "94901", "country": "US", "state": "CA", "display_address": ["967 Grand Ave", "San Rafael, CA 94901"]}, "phone": "+14152957998", "display_phone": "(415) 295-7998", "distance": 13944.192454351458}, {"id": "eTuHGI3mSesNREQP6B0wfg", "alias": "saigon-village-restaurant-san-rafael", "name": "Saigon Village Restaurant", "image_url": "https://s3-media1.fl.yelpcdn.com/bphoto/uw-OcOUm1bSFWS1wBuKGoQ/o.jpg", "is_closed": false, "url": "https://www.yelp.com/biz/saigon-village-restaurant-san-rafael?adjust_creative=K_rJo7VUP5JRiFo1Dydvmw&utm_campaign=yelp_api_v3&utm_medium=api_v3_business_search&utm_source=K_rJo7VUP5JRiFo1Dydvmw", "review_count": 291, "categories": [{"alias": "vietnamese", "title": "Vietnamese"}, {"alias": "noodles", "title": "Noodles"}, {"alias": "vegetarian", "title": "Vegetarian"}], "rating": 3.5, "coordinates": {"latitude": 37.97102, "longitude": -122.52961}, "transactions": ["delivery"], "price": "$", "location": {"address1": "720 B St", "address2": null, "address3": "", "city": "San Rafael", "zip_code": "94901", "country": "US", "state": "CA", "display_address": ["720 B St", "San Rafael, CA 94901"]}, "phone": "+14154533505", "display_phone": "(415) 453-3505", "distance": 13791.239217484706}, {"id": "Z8hbhl1xBbuC0SUqB8NRwg", "alias": "taco-bell-san-rafael-4", "name": "Taco Bell", "image_url": "https://s3-media4.fl.yelpcdn.com/bphoto/MFJsJpdzuF1q9vr81Ttw1Q/o.jpg", "is_closed": false, "url": "https://www.yelp.com/biz/taco-bell-san-rafael-4?adjust_creative=K_rJo7VUP5JRiFo1Dydvmw&utm_campaign=yelp_api_v3&utm_medium=api_v3_business_search&utm_source=K_rJo7VUP5JRiFo1Dydvmw", "review_count": 52, "categories": [{"alias": "hotdogs", "title": "Fast Food"}, {"alias": "tacos", "title": "Tacos"}], "rating": 1.5, "coordinates": {"latitude": 37.970252, "longitude": -122.520067}, "transactions": [], "price": "$", "location": {"address1": "555 Second Street", "address2": "", "address3": "", "city": "San Rafael", "zip_code": "94901", "country": "US", "state": "CA", "display_address": ["555 Second Street", "San Rafael, CA 94901"]}, "phone": "+14154541482", "display_phone": "(415) 454-1482", "distance": 14069.433559123221}, {"id": "i7E7xtQE1Rz912h2__t-8g", "alias": "san-rafael-joes-san-rafael", "name": "San Rafael Joe's", "image_url": "https://s3-media1.fl.yelpcdn.com/bphoto/Cc1kZ0lDYowxm3n8KQDRGQ/o.jpg", "is_closed": false, "url": "https://www.yelp.com/biz/san-rafael-joes-san-rafael?adjust_creative=K_rJo7VUP5JRiFo1Dydvmw&utm_campaign=yelp_api_v3&utm_medium=api_v3_business_search&utm_source=K_rJo7VUP5JRiFo1Dydvmw", "review_count": 198, "categories": [{"alias": "italian", "title": "Italian"}, {"alias": "venues", "title": "Venues & Event Spaces"}, {"alias": "seafood", "title": "Seafood"}], "rating": 3.0, "coordinates": {"latitude": 37.97274, "longitude": -122.52686}, "transactions": ["delivery"], "price": "$$", "location": {"address1": "931 4th St", "address2": "", "address3": "", "city": "San Rafael", "zip_code": "94901", "country": "US", "state": "CA", "display_address": ["931 4th St", "San Rafael, CA 94901"]}, "phone": "+14154562425", "display_phone": "(415) 456-2425", "distance": 13654.327279883873}, {"id": "0maqJx29uhZkmoBJB1BCqA", "alias": "nothing-bundt-cakes-corte-madera-2", "name": "Nothing Bundt Cakes", "image_url": "https://s3-media4.fl.yelpcdn.com/bphoto/z4MG9NcAmShh3q16IMvpKQ/o.jpg", "is_closed": false, "url": "https://www.yelp.com/biz/nothing-bundt-cakes-corte-madera-2?adjust_creative=K_rJo7VUP5JRiFo1Dydvmw&utm_campaign=yelp_api_v3&utm_medium=api_v3_business_search&utm_source=K_rJo7VUP5JRiFo1Dydvmw", "review_count": 125, "categories": [{"alias": "bakeries", "title": "Bakeries"}, {"alias": "desserts", "title": "Desserts"}, {"alias": "cupcakes", "title": "Cupcakes"}], "rating": 4.5, "coordinates": {"latitude": 37.9333924260978, "longitude": -122.517518306711}, "transactions": ["delivery"], "price": "$$", "location": {"address1": "47 Tamal Vista Blvd", "address2": "Ste G", "address3": "", "city": "Corte Madera", "zip_code": "94925", "country": "US", "state": "CA", "display_address": ["47 Tamal Vista Blvd", "Ste G", "Corte Madera, CA 94925"]}, "phone": "+14159242500", "display_phone": "(415) 924-2500", "distance": 18104.13141752529}, {"id": "dnB3n6Xqp_b3XXQmnW_ioQ", "alias": "pink-owl-coffee-san-rafael", "name": "PINK OWL COFFEE", "image_url": "https://s3-media2.fl.yelpcdn.com/bphoto/C5bmrsVixqxdBz_Q23_WFg/o.jpg", "is_closed": false, "url": "https://www.yelp.com/biz/pink-owl-coffee-san-rafael?adjust_creative=K_rJo7VUP5JRiFo1Dydvmw&utm_campaign=yelp_api_v3&utm_medium=api_v3_business_search&utm_source=K_rJo7VUP5JRiFo1Dydvmw", "review_count": 34, "categories": [{"alias": "coffee", "title": "Coffee & Tea"}], "rating": 5.0, "coordinates": {"latitude": 37.97375, "longitude": -122.53955}, "transactions": ["pickup", "delivery"], "location": {"address1": "1816 2nd St", "address2": "Ste 9", "address3": "", "city": "San Rafael", "zip_code": "94901", "country": "US", "state": "CA", "display_address": ["1816 2nd St", "Ste 9", "San Rafael, CA 94901"]}, "phone": "+14158709934", "display_phone": "(415) 870-9934", "distance": 13351.027862945359}, {"id": "Xz6tJQq0ai7oq2CtJO690A", "alias": "hanks-petaluma-petaluma", "name": "Hank's Petaluma", "image_url": "https://s3-media2.fl.yelpcdn.com/bphoto/SZIMRkwBC1KhRA9ZsBl4Gg/o.jpg", "is_closed": false, "url": "https://www.yelp.com/biz/hanks-petaluma-petaluma?adjust_creative=K_rJo7VUP5JRiFo1Dydvmw&utm_campaign=yelp_api_v3&utm_medium=api_v3_business_search&utm_source=K_rJo7VUP5JRiFo1Dydvmw", "review_count": 22, "categories": [{"alias": "pizza", "title": "Pizza"}, {"alias": "italian", "title": "Italian"}, {"alias": "wine_bars", "title": "Wine Bars"}], "rating": 4.0, "coordinates": {"latitude": 38.23294, "longitude": -122.63717}, "transactions": [], "price": "$$", "location": {"address1": "151 Petaluma Blvd S", "address2": "Ste 123", "address3": null, "city": "Petaluma", "zip_code": "94952", "country": "US", "state": "CA", "display_address": ["151 Petaluma Blvd S", "Ste 123", "Petaluma, CA 94952"]}, "phone": "+17079817852", "display_phone": "(707) 981-7852", "distance": 16950.908306824298}, {"id": "A8VlqTG-g32N6BOpp_iSeQ", "alias": "el-huarache-loco-larkspur", "name": "El Huarache Loco", "image_url": "https://s3-media2.fl.yelpcdn.com/bphoto/ghj1t7fiBJ6w50LKJZHd2A/o.jpg", "is_closed": false, "url": "https://www.yelp.com/biz/el-huarache-loco-larkspur?adjust_creative=K_rJo7VUP5JRiFo1Dydvmw&utm_campaign=yelp_api_v3&utm_medium=api_v3_business_search&utm_source=K_rJo7VUP5JRiFo1Dydvmw", "review_count": 240, "categories": [{"alias": "mexican", "title": "Mexican"}], "rating": 3.5, "coordinates": {"latitude": 37.9473714469015, "longitude": -122.509409270932}, "transactions": ["pickup"], "price": "$$", "location": {"address1": "1803 Larkspur Landing Cir", "address2": "", "address3": "", "city": "Larkspur", "zip_code": "94939", "country": "US", "state": "CA", "display_address": ["1803 Larkspur Landing Cir", "Larkspur, CA 94939"]}, "phone": "+14159251403", "display_phone": "(415) 925-1403", "distance": 16771.094396090295}, {"id": "-v5HyepnYLCwhAsWmhFxDg", "alias": "le-croissant-san-rafael", "name": "Le Croissant", "image_url": "https://s3-media3.fl.yelpcdn.com/bphoto/gyxUC1MKw_XZpbmrC-KGIw/o.jpg", "is_closed": false, "url": "https://www.yelp.com/biz/le-croissant-san-rafael?adjust_creative=K_rJo7VUP5JRiFo1Dydvmw&utm_campaign=yelp_api_v3&utm_medium=api_v3_business_search&utm_source=K_rJo7VUP5JRiFo1Dydvmw", "review_count": 261, "categories": [{"alias": "breakfast_brunch", "title": "Breakfast & Brunch"}, {"alias": "diners", "title": "Diners"}, {"alias": "cafes", "title": "Cafes"}], "rating": 4.0, "coordinates": {"latitude": 37.9610559826229, "longitude": -122.50277692408}, "transactions": ["delivery"], "price": "$$", "location": {"address1": "150 Bellam Blvd", "address2": "Ste 210", "address3": "", "city": "San Rafael", "zip_code": "94901", "country": "US", "state": "CA", "display_address": ["150 Bellam Blvd", "Ste 210", "San Rafael, CA 94901"]}, "phone": "+14154560164", "display_phone": "(415) 456-0164", "distance": 15498.803945785596}, {"id": "hwibYVfOF8DwgmJw_LEqSg", "alias": "trek-winery-novato-2", "name": "Trek Winery", "image_url": "https://s3-media1.fl.yelpcdn.com/bphoto/l2KHpmLr2z9Ls488DdZ1Gg/o.jpg", "is_closed": false, "url": "https://www.yelp.com/biz/trek-winery-novato-2?adjust_creative=K_rJo7VUP5JRiFo1Dydvmw&utm_campaign=yelp_api_v3&utm_medium=api_v3_business_search&utm_source=K_rJo7VUP5JRiFo1Dydvmw", "review_count": 73, "categories": [{"alias": "wineries", "title": "Wineries"}], "rating": 4.5, "coordinates": {"latitude": 38.1086845397949, "longitude": -122.568817138672}, "transactions": [], "price": "$$", "location": {"address1": "1026 Machin Ave", "address2": "", "address3": "", "city": "Novato", "zip_code": "94945", "country": "US", "state": "CA", "display_address": ["1026 Machin Ave", "Novato, CA 94945"]}, "phone": "+14158999883", "display_phone": "(415) 899-9883", "distance": 1907.8629257231685}, {"id": "jii6n6U-6zYKAcliDPaUmw", "alias": "boca-pizzeria-novato", "name": "Boca Pizzeria", "image_url": "https://s3-media4.fl.yelpcdn.com/bphoto/FFcMNeWHzyppTdgOSKcf3g/o.jpg", "is_closed": false, "url": "https://www.yelp.com/biz/boca-pizzeria-novato?adjust_creative=K_rJo7VUP5JRiFo1Dydvmw&utm_campaign=yelp_api_v3&utm_medium=api_v3_business_search&utm_source=K_rJo7VUP5JRiFo1Dydvmw", "review_count": 325, "categories": [{"alias": "pizza", "title": "Pizza"}], "rating": 3.5, "coordinates": {"latitude": 38.067496, "longitude": -122.541828}, "transactions": ["pickup", "restaurant_reservation", "delivery"], "price": "$$", "location": {"address1": "454 Ignacio Blvd", "address2": "", "address3": "", "city": "Novato", "zip_code": "94949", "country": "US", "state": "CA", "display_address": ["454 Ignacio Blvd", "Novato, CA 94949"]}, "phone": "+14158832302", "display_phone": "(415) 883-2302", "distance": 3286.4617187212693}, {"id": "M53yjwy9puHKyzHrglDMvA", "alias": "sunrise-donuts-petaluma", "name": "Sunrise Donuts", "image_url": "https://s3-media3.fl.yelpcdn.com/bphoto/MkjVVda6MA3-5kXvyxZwdw/o.jpg", "is_closed": false, "url": "https://www.yelp.com/biz/sunrise-donuts-petaluma?adjust_creative=K_rJo7VUP5JRiFo1Dydvmw&utm_campaign=yelp_api_v3&utm_medium=api_v3_business_search&utm_source=K_rJo7VUP5JRiFo1Dydvmw", "review_count": 64, "categories": [{"alias": "delis", "title": "Delis"}, {"alias": "donuts", "title": "Donuts"}], "rating": 4.5, "coordinates": {"latitude": 38.235916687994, "longitude": -122.638258306117}, "transactions": [], "price": "$", "location": {"address1": "68 E Washington St", "address2": "", "address3": "", "city": "Petaluma", "zip_code": "94952", "country": "US", "state": "CA", "display_address": ["68 E Washington St", "Petaluma, CA 94952"]}, "phone": "+17077626601", "display_phone": "(707) 762-6601", "distance": 17294.32138398908}, {"id": "gzky773BGgYQZmH08VE_Rw", "alias": "cucina-sa-san-anselmo-2", "name": "Cucina sa", "image_url": "https://s3-media4.fl.yelpcdn.com/bphoto/p1SUltdfd5QuGmxYTygpiQ/o.jpg", "is_closed": false, "url": "https://www.yelp.com/biz/cucina-sa-san-anselmo-2?adjust_creative=K_rJo7VUP5JRiFo1Dydvmw&utm_campaign=yelp_api_v3&utm_medium=api_v3_business_search&utm_source=K_rJo7VUP5JRiFo1Dydvmw", "review_count": 223, "categories": [{"alias": "italian", "title": "Italian"}, {"alias": "pizza", "title": "Pizza"}, {"alias": "cocktailbars", "title": "Cocktail Bars"}], "rating": 4.0, "coordinates": {"latitude": 37.97456, "longitude": -122.56234}, "transactions": ["restaurant_reservation", "delivery"], "price": "$$", "location": {"address1": "510 San Anselmo Ave", "address2": "", "address3": "", "city": "San Anselmo", "zip_code": "94960", "country": "US", "state": "CA", "display_address": ["510 San Anselmo Ave", "San Anselmo, CA 94960"]}, "phone": "+14154542942", "display_phone": "(415) 454-2942", "distance": 13094.853578750693}, {"id": "xpklAtjaXNiFzMlV1xn0vQ", "alias": "jelly-donut-san-rafael", "name": "Jelly Donut", "image_url": "https://s3-media4.fl.yelpcdn.com/bphoto/YDuFfwcR-DDhwQwSGWNBDQ/o.jpg", "is_closed": false, "url": "https://www.yelp.com/biz/jelly-donut-san-rafael?adjust_creative=K_rJo7VUP5JRiFo1Dydvmw&utm_campaign=yelp_api_v3&utm_medium=api_v3_business_search&utm_source=K_rJo7VUP5JRiFo1Dydvmw", "review_count": 74, "categories": [{"alias": "donuts", "title": "Donuts"}, {"alias": "coffee", "title": "Coffee & Tea"}, {"alias": "bakeries", "title": "Bakeries"}], "rating": 4.5, "coordinates": {"latitude": 38.00779105633, "longitude": -122.54748809172}, "transactions": [], "price": "$", "location": {"address1": "244 Northgate One", "address2": "", "address3": "", "city": "San Rafael", "zip_code": "94903", "country": "US", "state": "CA", "display_address": ["244 Northgate One", "San Rafael, CA 94903"]}, "phone": "+14154914556", "display_phone": "(415) 491-4556", "distance": 9491.682244308158}, {"id": "UkMt-5HXHrm_gp5LUqbA2w", "alias": "tuttimelon-novato", "name": "Tuttimelon", "image_url": "https://s3-media4.fl.yelpcdn.com/bphoto/V4eOjaPn_vi_upLf-vYiPA/o.jpg", "is_closed": false, "url": "https://www.yelp.com/biz/tuttimelon-novato?adjust_creative=K_rJo7VUP5JRiFo1Dydvmw&utm_campaign=yelp_api_v3&utm_medium=api_v3_business_search&utm_source=K_rJo7VUP5JRiFo1Dydvmw", "review_count": 214, "categories": [{"alias": "desserts", "title": "Desserts"}, {"alias": "icecream", "title": "Ice Cream & Frozen Yogurt"}, {"alias": "gelato", "title": "Gelato"}], "rating": 4.0, "coordinates": {"latitude": 38.0908884167494, "longitude": -122.554768660205}, "transactions": ["pickup", "delivery"], "price": "$$", "location": {"address1": "132 Vintage Way", "address2": "Ste F-9", "address3": "", "city": "Novato", "zip_code": "94945", "country": "US", "state": "CA", "display_address": ["132 Vintage Way", "Ste F-9", "Novato, CA 94945"]}, "phone": "+14158976900", "display_phone": "(415) 897-6900", "distance": 662.7475340911523}, {"id": "vtW1vzsPPoSZ2XeeuryE5A", "alias": "taqueria-mi-familia-san-anselmo", "name": "Taqueria Mi Familia", "image_url": "https://s3-media3.fl.yelpcdn.com/bphoto/AxxrSx15w2_W8Tk42bQYDw/o.jpg", "is_closed": false, "url": "https://www.yelp.com/biz/taqueria-mi-familia-san-anselmo?adjust_creative=K_rJo7VUP5JRiFo1Dydvmw&utm_campaign=yelp_api_v3&utm_medium=api_v3_business_search&utm_source=K_rJo7VUP5JRiFo1Dydvmw", "review_count": 79, "categories": [{"alias": "mexican", "title": "Mexican"}], "rating": 4.0, "coordinates": {"latitude": 37.9767875671387, "longitude": -122.560272216797}, "transactions": ["delivery"], "price": "$", "location": {"address1": "580 Red Hill Ave", "address2": "", "address3": "", "city": "San Anselmo", "zip_code": "94960", "country": "US", "state": "CA", "display_address": ["580 Red Hill Ave", "San Anselmo, CA 94960"]}, "phone": "+14152569411", "display_phone": "(415) 256-9411", "distance": 12860.155214054903}, {"id": "YIBm53Ctavf9n2SaX6Hi2g", "alias": "my-thai-san-rafael", "name": "My Thai", "image_url": "https://s3-media2.fl.yelpcdn.com/bphoto/62ckfbT6xkVZmWxxBwj9CQ/o.jpg", "is_closed": false, "url": "https://www.yelp.com/biz/my-thai-san-rafael?adjust_creative=K_rJo7VUP5JRiFo1Dydvmw&utm_campaign=yelp_api_v3&utm_medium=api_v3_business_search&utm_source=K_rJo7VUP5JRiFo1Dydvmw", "review_count": 342, "categories": [{"alias": "thai", "title": "Thai"}], "rating": 3.5, "coordinates": {"latitude": 37.97357, "longitude": -122.53031}, "transactions": ["pickup", "delivery"], "price": "$$", "location": {"address1": "1230 4th St", "address2": "", "address3": "", "city": "San Rafael", "zip_code": "94901", "country": "US", "state": "CA", "display_address": ["1230 4th St", "San Rafael, CA 94901"]}, "phone": "+14154564455", "display_phone": "(415) 456-4455", "distance": 13512.260117932325}, {"id": "KtyP-zkZvM8b79sI7R38fQ", "alias": "taps-beer-co-and-kitchen-petaluma-5", "name": "Taps Beer Co & Kitchen", "image_url": "https://s3-media4.fl.yelpcdn.com/bphoto/noyR1oiXyOCNYG93fRXwDA/o.jpg", "is_closed": false, "url": "https://www.yelp.com/biz/taps-beer-co-and-kitchen-petaluma-5?adjust_creative=K_rJo7VUP5JRiFo1Dydvmw&utm_campaign=yelp_api_v3&utm_medium=api_v3_business_search&utm_source=K_rJo7VUP5JRiFo1Dydvmw", "review_count": 303, "categories": [{"alias": "newamerican", "title": "American (New)"}, {"alias": "gastropubs", "title": "Gastropubs"}, {"alias": "beergardens", "title": "Beer Gardens"}], "rating": 3.5, "coordinates": {"latitude": 38.234951, "longitude": -122.638497}, "transactions": [], "price": "$$", "location": {"address1": "54 E Washington St", "address2": "", "address3": "", "city": "Petaluma", "zip_code": "94952", "country": "US", "state": "CA", "display_address": ["54 E Washington St", "Petaluma, CA 94952"]}, "phone": "+17077636700", "display_phone": "(707) 763-6700", "distance": 17203.375803624647}, {"id": "-mMK0EnoSDMfmXD1C37kAA", "alias": "tin-bar-coffee-petaluma", "name": "Tin Bar - Coffee", "image_url": "https://s3-media1.fl.yelpcdn.com/bphoto/AShR2TGPdCZv-zopMBYazQ/o.jpg", "is_closed": false, "url": "https://www.yelp.com/biz/tin-bar-coffee-petaluma?adjust_creative=K_rJo7VUP5JRiFo1Dydvmw&utm_campaign=yelp_api_v3&utm_medium=api_v3_business_search&utm_source=K_rJo7VUP5JRiFo1Dydvmw", "review_count": 6, "categories": [{"alias": "cafes", "title": "Cafes"}, {"alias": "coffee", "title": "Coffee & Tea"}], "rating": 4.5, "coordinates": {"latitude": 38.2124291993104, "longitude": -122.549246805754}, "transactions": [], "price": "$", "location": {"address1": "5100 Lakeville Hwy", "address2": "", "address3": "", "city": "Petaluma", "zip_code": "94954", "country": "US", "state": "CA", "display_address": ["5100 Lakeville Hwy", "Petaluma, CA 94954"]}, "phone": "", "display_phone": "", "distance": 13396.933907088503}, {"id": "S_EMUp748I27lPiBKOWMEQ", "alias": "pier-15-restaurant-and-bar-san-rafael-2", "name": "Pier 15 Restaurant & Bar", "image_url": "https://s3-media2.fl.yelpcdn.com/bphoto/dxz9Z1dsQ_b4CB8euZKFSw/o.jpg", "is_closed": false, "url": "https://www.yelp.com/biz/pier-15-restaurant-and-bar-san-rafael-2?adjust_creative=K_rJo7VUP5JRiFo1Dydvmw&utm_campaign=yelp_api_v3&utm_medium=api_v3_business_search&utm_source=K_rJo7VUP5JRiFo1Dydvmw", "review_count": 314, "categories": [{"alias": "italian", "title": "Italian"}, {"alias": "newamerican", "title": "American (New)"}, {"alias": "bars", "title": "Bars"}], "rating": 3.5, "coordinates": {"latitude": 37.96591, "longitude": -122.51372}, "transactions": ["delivery"], "price": "$$", "location": {"address1": "15 Harbor St", "address2": null, "address3": "", "city": "San Rafael", "zip_code": "94901", "country": "US", "state": "CA", "display_address": ["15 Harbor St", "San Rafael, CA 94901"]}, "phone": "+14152569121", "display_phone": "(415) 256-9121", "distance": 14705.671888707957}, {"id": "-hnNYUZgBvA1lyvZFIjWdw", "alias": "bangkok-thai-express-san-rafael", "name": "Bangkok Thai Express", "image_url": "https://s3-media3.fl.yelpcdn.com/bphoto/WpFjox__rab5ZzG-JdFzmQ/o.jpg", "is_closed": false, "url": "https://www.yelp.com/biz/bangkok-thai-express-san-rafael?adjust_creative=K_rJo7VUP5JRiFo1Dydvmw&utm_campaign=yelp_api_v3&utm_medium=api_v3_business_search&utm_source=K_rJo7VUP5JRiFo1Dydvmw", "review_count": 169, "categories": [{"alias": "thai", "title": "Thai"}], "rating": 4.0, "coordinates": {"latitude": 37.9727, "longitude": -122.52524}, "transactions": ["pickup", "delivery"], "price": "$$", "location": {"address1": "857 4th St", "address2": "", "address3": "", "city": "San Rafael", "zip_code": "94901", "country": "US", "state": "CA", "display_address": ["857 4th St", "San Rafael, CA 94901"]}, "phone": "+14154533350", "display_phone": "(415) 453-3350", "distance": 13693.730280957527}, {"id": "tycrcipxZLCIBCgjlPrMTg", "alias": "boca-tavern-novato", "name": "Boca Tavern", "image_url": "https://s3-media3.fl.yelpcdn.com/bphoto/KceD7S-SoVC4cFXgB9H4cg/o.jpg", "is_closed": false, "url": "https://www.yelp.com/biz/boca-tavern-novato?adjust_creative=K_rJo7VUP5JRiFo1Dydvmw&utm_campaign=yelp_api_v3&utm_medium=api_v3_business_search&utm_source=K_rJo7VUP5JRiFo1Dydvmw", "review_count": 273, "categories": [{"alias": "newamerican", "title": "American (New)"}, {"alias": "bars", "title": "Bars"}], "rating": 4.0, "coordinates": {"latitude": 38.066264, "longitude": -122.5405519}, "transactions": ["pickup", "restaurant_reservation", "delivery"], "price": "$$", "location": {"address1": "340 Ignacio Blvd", "address2": "", "address3": "", "city": "Novato", "zip_code": "94949", "country": "US", "state": "CA", "display_address": ["340 Ignacio Blvd", "Novato, CA 94949"]}, "phone": "+14158830901", "display_phone": "(415) 883-0901", "distance": 3462.143739099262}, {"id": "kqE028G7ksvRdsuzlXjZOA", "alias": "el-gaaarage-richmond", "name": "El_gaaarage", "image_url": "https://s3-media3.fl.yelpcdn.com/bphoto/fuZByOIFGktqZC8iLnAkjg/o.jpg", "is_closed": false, "url": "https://www.yelp.com/biz/el-gaaarage-richmond?adjust_creative=K_rJo7VUP5JRiFo1Dydvmw&utm_campaign=yelp_api_v3&utm_medium=api_v3_business_search&utm_source=K_rJo7VUP5JRiFo1Dydvmw", "review_count": 1, "categories": [{"alias": "streetvendors", "title": "Street Vendors"}], "rating": 4.0, "coordinates": {"latitude": 37.95405, "longitude": -122.3772}, "transactions": [], "location": {"address1": "", "address2": "", "address3": null, "city": "Richmond", "zip_code": "94801", "country": "US", "state": "CA", "display_address": ["Richmond, CA 94801"]}, "phone": "", "display_phone": "", "distance": 22430.186896279392}, {"id": "t-FZuYo9hrQ3x_WpN8lXvQ", "alias": "in-n-out-burger-petaluma-2", "name": "In-N-Out Burger", "image_url": "https://s3-media3.fl.yelpcdn.com/bphoto/QyQi_pQPXvQc-JZPCYScUw/o.jpg", "is_closed": false, "url": "https://www.yelp.com/biz/in-n-out-burger-petaluma-2?adjust_creative=K_rJo7VUP5JRiFo1Dydvmw&utm_campaign=yelp_api_v3&utm_medium=api_v3_business_search&utm_source=K_rJo7VUP5JRiFo1Dydvmw", "review_count": 168, "categories": [{"alias": "hotdogs", "title": "Fast Food"}, {"alias": "burgers", "title": "Burgers"}], "rating": 4.0, "coordinates": {"latitude": 38.234582, "longitude": -122.620895}, "transactions": [], "price": "$", "location": {"address1": "1010 Lakeville Hwy", "address2": "", "address3": "", "city": "Petaluma", "zip_code": "94952", "country": "US", "state": "CA", "display_address": ["1010 Lakeville Hwy", "Petaluma, CA 94952"]}, "phone": "+18007861000", "display_phone": "(800) 786-1000", "distance": 16627.361140572786}, {"id": "KFeIfrJLN7H4_b_CfItFGA", "alias": "la-hacienda-taqueria-san-rafael-2", "name": "La Hacienda Taqueria", "image_url": "https://s3-media2.fl.yelpcdn.com/bphoto/UJd0wvB1Xr-omDg0x0EojQ/o.jpg", "is_closed": false, "url": "https://www.yelp.com/biz/la-hacienda-taqueria-san-rafael-2?adjust_creative=K_rJo7VUP5JRiFo1Dydvmw&utm_campaign=yelp_api_v3&utm_medium=api_v3_business_search&utm_source=K_rJo7VUP5JRiFo1Dydvmw", "review_count": 184, "categories": [{"alias": "mexican", "title": "Mexican"}, {"alias": "seafood", "title": "Seafood"}], "rating": 3.5, "coordinates": {"latitude": 37.998941, "longitude": -122.536329}, "transactions": ["pickup"], "price": "$$", "location": {"address1": "3815 Redwood Hwy", "address2": null, "address3": "", "city": "San Rafael", "zip_code": "94903", "country": "US", "state": "CA", "display_address": ["3815 Redwood Hwy", "San Rafael, CA 94903"]}, "phone": "+14154797800", "display_phone": "(415) 479-7800", "distance": 10631.431634795912}], "total": 1100, "region": {"center": {"longitude": -122.56210327148438, "latitude": 38.092372469871066}}}