{"businesses": [{"id": "OB4vVV4cBgEBoxPFDf0Hvg", "alias": "julies-hummus-bar-and-grill-san-rafael-2", "name": "Julie's Hummus Bar & Grill", "image_url": "https://s3-media1.fl.yelpcdn.com/bphoto/Qc2iiR_jHgz_ZW501_Ovvg/o.jpg", "is_closed": false, "url": "https://www.yelp.com/biz/julies-hummus-bar-and-grill-san-rafael-2?adjust_creative=K_rJo7VUP5JRiFo1Dydvmw&utm_campaign=yelp_api_v3&utm_medium=api_v3_business_search&utm_source=K_rJo7VUP5JRiFo1Dydvmw", "review_count": 155, "categories": [{"alias": "falafel", "title": "Falafel"}, {"alias": "mideastern", "title": "Middle Eastern"}, {"alias": "halal", "title": "Halal"}], "rating": 4.5, "coordinates": {"latitude": 37.973557, "longitude": -122.52689883}, "transactions": ["pickup", "delivery"], "price": "$$", "location": {"address1": "1026 Court St", "address2": null, "address3": "", "city": "San Rafael", "zip_code": "94901", "country": "US", "state": "CA", "display_address": ["1026 Court St", "San Rafael, CA 94901"]}, "phone": "+14157554818", "display_phone": "(415) 755-4818", "distance": 13565.191759023783}, {"id": "vvJF5hAgHQ3Re1H9YexYyg", "alias": "jennie-lows-chinese-cuisine-novato", "name": "Jennie Low's Chinese Cuisine", "image_url": "https://s3-media1.fl.yelpcdn.com/bphoto/MOfn5cJlPW1NpaqGk4-dOg/o.jpg", "is_closed": false, "url": "https://www.yelp.com/biz/jennie-lows-chinese-cuisine-novato?adjust_creative=K_rJo7VUP5JRiFo1Dydvmw&utm_campaign=yelp_api_v3&utm_medium=api_v3_business_search&utm_source=K_rJo7VUP5JRiFo1Dydvmw", "review_count": 216, "categories": [{"alias": "chinese", "title": "Chinese"}, {"alias": "seafood", "title": "Seafood"}], "rating": 3.5, "coordinates": {"latitude": 38.09235, "longitude": -122.555888}, "transactions": ["delivery"], "price": "$$", "location": {"address1": "120 Vintage Way", "address2": "Ste D9", "address3": "", "city": "Novato", "zip_code": "94945", "country": "US", "state": "CA", "display_address": ["120 Vintage Way", "Ste D9", "Novato, CA 94945"]}, "phone": "+14158928838", "display_phone": "(415) 892-8838", "distance": 725.571592174704}, {"id": "SDcAc8wvlvIj9_kun0-ZrA", "alias": "firehouse-subs-novato-novato", "name": "Firehouse Subs - Novato", "image_url": "https://s3-media2.fl.yelpcdn.com/bphoto/IrMxlDMgh6qcQJU8lV1eZQ/o.jpg", "is_closed": false, "url": "https://www.yelp.com/biz/firehouse-subs-novato-novato?adjust_creative=K_rJo7VUP5JRiFo1Dydvmw&utm_campaign=yelp_api_v3&utm_medium=api_v3_business_search&utm_source=K_rJo7VUP5JRiFo1Dydvmw", "review_count": 118, "categories": [{"alias": "sandwiches", "title": "Sandwiches"}, {"alias": "hotdogs", "title": "Fast Food"}, {"alias": "delis", "title": "Delis"}], "rating": 3.5, "coordinates": {"latitude": 38.11187, "longitude": -122.56931}, "transactions": ["pickup", "delivery"], "price": "$$", "location": {"address1": "7505 Redwood", "address2": "Ste A", "address3": "", "city": "Novato", "zip_code": "94945", "country": "US", "state": "CA", "display_address": ["7505 Redwood", "Ste A", "Novato, CA 94945"]}, "phone": "+14154083403", "display_phone": "(415) 408-3403", "distance": 2256.4349325685503}, {"id": "Yr4qYVhbmd4APqJeylIMQQ", "alias": "falafel-hut-san-rafael-3", "name": "Falafel Hut", "image_url": "https://s3-media3.fl.yelpcdn.com/bphoto/hpC9DOlNrKH8y4OIqajqAA/o.jpg", "is_closed": false, "url": "https://www.yelp.com/biz/falafel-hut-san-rafael-3?adjust_creative=K_rJo7VUP5JRiFo1Dydvmw&utm_campaign=yelp_api_v3&utm_medium=api_v3_business_search&utm_source=K_rJo7VUP5JRiFo1Dydvmw", "review_count": 399, "categories": [{"alias": "mideastern", "title": "Middle Eastern"}], "rating": 4.0, "coordinates": {"latitude": 37.97307, "longitude": -122.52856}, "transactions": ["pickup", "delivery"], "price": "$", "location": {"address1": "1115 4th St", "address2": null, "address3": "", "city": "San Rafael", "zip_code": "94901", "country": "US", "state": "CA", "display_address": ["1115 4th St", "San Rafael, CA 94901"]}, "phone": "+14152590440", "display_phone": "(415) 259-0440", "distance": 13591.266589335874}, {"id": "uC9QPLWL5SGbuSp9Q8Z9qg", "alias": "redwood-cafe-san-rafael", "name": "Redwood Cafe", "image_url": "https://s3-media3.fl.yelpcdn.com/bphoto/RxFlZAKjFeGKjrtqFGOXdQ/o.jpg", "is_closed": false, "url": "https://www.yelp.com/biz/redwood-cafe-san-rafael?adjust_creative=K_rJo7VUP5JRiFo1Dydvmw&utm_campaign=yelp_api_v3&utm_medium=api_v3_business_search&utm_source=K_rJo7VUP5JRiFo1Dydvmw", "review_count": 98, "categories": [{"alias": "sandwiches", "title": "Sandwiches"}, {"alias": "cafes", "title": "Cafes"}, {"alias": "greek", "title": "Greek"}], "rating": 4.0, "coordinates": {"latitude": 38.01888, "longitude": -122.53722}, "transactions": [], "price": "$$", "location": {"address1": "175 Paul Dr", "address2": "", "address3": "", "city": "San Rafael", "zip_code": "94903", "country": "US", "state": "CA", "display_address": ["175 Paul Dr", "San Rafael, CA 94903"]}, "phone": "+14154798989", "display_phone": "(415) 479-8989", "distance": 8485.872238388329}, {"id": "wcRyOpNy1FiXmZXUg-JLtQ", "alias": "marin-coffee-roasters-ignacio", "name": "Marin Coffee Roasters", "image_url": "https://s3-media4.fl.yelpcdn.com/bphoto/1gFgNo5S8Bdz58_2AD8Euw/o.jpg", "is_closed": false, "url": "https://www.yelp.com/biz/marin-coffee-roasters-ignacio?adjust_creative=K_rJo7VUP5JRiFo1Dydvmw&utm_campaign=yelp_api_v3&utm_medium=api_v3_business_search&utm_source=K_rJo7VUP5JRiFo1Dydvmw", "review_count": 48, "categories": [{"alias": "cafes", "title": "Cafes"}], "rating": 4.0, "coordinates": {"latitude": 38.0672038277531, "longitude": -122.542545705284}, "transactions": ["pickup", "delivery"], "price": "$", "location": {"address1": "466 Ignacio Blvd", "address2": "", "address3": "", "city": "Ignacio", "zip_code": "94949", "country": "US", "state": "CA", "display_address": ["466 Ignacio Blvd", "Ignacio, CA 94949"]}, "phone": "+14158849400", "display_phone": "(415) 884-9400", "distance": 3280.6426213051554}, {"id": "zmDReU_89rGBfq53ZWjnUQ", "alias": "vn-noodle-and-grill-san-rafael", "name": "VN Noodle & Grill", "image_url": "https://s3-media4.fl.yelpcdn.com/bphoto/yb2M1AAB9mlVcOMEWD23Fg/o.jpg", "is_closed": false, "url": "https://www.yelp.com/biz/vn-noodle-and-grill-san-rafael?adjust_creative=K_rJo7VUP5JRiFo1Dydvmw&utm_campaign=yelp_api_v3&utm_medium=api_v3_business_search&utm_source=K_rJo7VUP5JRiFo1Dydvmw", "review_count": 116, "categories": [{"alias": "vietnamese", "title": "Vietnamese"}, {"alias": "noodles", "title": "Noodles"}], "rating": 4.0, "coordinates": {"latitude": 37.9700176490212, "longitude": -122.518288053164}, "transactions": ["delivery"], "price": "$$", "location": {"address1": "421 3rd St", "address2": "", "address3": "", "city": "San Rafael", "zip_code": "94901", "country": "US", "state": "CA", "display_address": ["421 3rd St", "San Rafael, CA 94901"]}, "phone": "+14153068299", "display_phone": "(415) 306-8299", "distance": 14136.087736753774}, {"id": "HgtmAiRt2HufM2sySNS6OA", "alias": "saxs-joint-petaluma", "name": "Sax's Joint", "image_url": "https://s3-media1.fl.yelpcdn.com/bphoto/5bjNHF5s0IbqqCqMfqlXdA/o.jpg", "is_closed": false, "url": "https://www.yelp.com/biz/saxs-joint-petaluma?adjust_creative=K_rJo7VUP5JRiFo1Dydvmw&utm_campaign=yelp_api_v3&utm_medium=api_v3_business_search&utm_source=K_rJo7VUP5JRiFo1Dydvmw", "review_count": 992, "categories": [{"alias": "breakfast_brunch", "title": "Breakfast & Brunch"}, {"alias": "diners", "title": "Diners"}, {"alias": "burgers", "title": "Burgers"}], "rating": 4.5, "coordinates": {"latitude": 38.2318385960112, "longitude": -122.63489574194}, "transactions": ["pickup"], "price": "$$", "location": {"address1": "317 Petaluma Blvd S", "address2": "", "address3": "", "city": "Petaluma", "zip_code": "94952", "country": "US", "state": "CA", "display_address": ["317 Petaluma Blvd S", "Petaluma, CA 94952"]}, "phone": "+17075593021", "display_phone": "(707) 559-3021", "distance": 16762.981539813572}, {"id": "NNWfnDGtldXmPaXbpax-gQ", "alias": "taqueria-san-jose-san-rafael", "name": "Taqueria San Jose", "image_url": "https://s3-media3.fl.yelpcdn.com/bphoto/BkxKSUbGlpSpNKGt53u6Dw/o.jpg", "is_closed": false, "url": "https://www.yelp.com/biz/taqueria-san-jose-san-rafael?adjust_creative=K_rJo7VUP5JRiFo1Dydvmw&utm_campaign=yelp_api_v3&utm_medium=api_v3_business_search&utm_source=K_rJo7VUP5JRiFo1Dydvmw", "review_count": 554, "categories": [{"alias": "mexican", "title": "Mexican"}], "rating": 4.0, "coordinates": {"latitude": 37.97204, "longitude": -122.52123}, "transactions": ["delivery"], "price": "$", "location": {"address1": "615 4th St", "address2": "", "address3": "", "city": "San Rafael", "zip_code": "94901", "country": "US", "state": "CA", "display_address": ["615 4th St", "San Rafael, CA 94901"]}, "phone": "+14154550999", "display_phone": "(415) 455-0999", "distance": 13854.060297698858}, {"id": "xeCcrqriziEZocKxhvIIuA", "alias": "green-bamboo-chinese-novato", "name": "Green Bamboo Chinese", "image_url": "https://s3-media2.fl.yelpcdn.com/bphoto/hPtgWeWy2MZDsoXJcDr9kw/o.jpg", "is_closed": false, "url": "https://www.yelp.com/biz/green-bamboo-chinese-novato?adjust_creative=K_rJo7VUP5JRiFo1Dydvmw&utm_campaign=yelp_api_v3&utm_medium=api_v3_business_search&utm_source=K_rJo7VUP5JRiFo1Dydvmw", "review_count": 67, "categories": [{"alias": "chinese", "title": "Chinese"}], "rating": 3.5, "coordinates": {"latitude": 38.068818, "longitude": -122.541284}, "transactions": ["pickup", "delivery"], "price": "$", "location": {"address1": "471 Entrada Dr", "address2": "", "address3": "", "city": "Novato", "zip_code": "94949", "country": "US", "state": "CA", "display_address": ["471 Entrada Dr", "Novato, CA 94949"]}, "phone": "+14158839060", "display_phone": "(415) 883-9060", "distance": 3190.674451899474}, {"id": "REEHmJ7lJXcbyaDeeU1ptA", "alias": "petaluma-pie-company-petaluma", "name": "Petaluma Pie Company", "image_url": "https://s3-media2.fl.yelpcdn.com/bphoto/c5Jyz-AuoVFvTZVMe3H1kg/o.jpg", "is_closed": false, "url": "https://www.yelp.com/biz/petaluma-pie-company-petaluma?adjust_creative=K_rJo7VUP5JRiFo1Dydvmw&utm_campaign=yelp_api_v3&utm_medium=api_v3_business_search&utm_source=K_rJo7VUP5JRiFo1Dydvmw", "review_count": 464, "categories": [{"alias": "tradamerican", "title": "American (Traditional)"}, {"alias": "bakeries", "title": "Bakeries"}], "rating": 4.0, "coordinates": {"latitude": 38.2346554806575, "longitude": -122.640948817134}, "transactions": [], "price": "$", "location": {"address1": "125 Petaluma Blvd N", "address2": "Ste D", "address3": "Helen Putnam Plz", "city": "Petaluma", "zip_code": "94954", "country": "US", "state": "CA", "display_address": ["125 Petaluma Blvd N", "Ste D", "Helen Putnam Plz", "Petaluma, CA 94954"]}, "phone": "+17077666743", "display_phone": "(707) 766-6743", "distance": 17257.598645383063}, {"id": "qsP1MrPjH63d7_XyKsyFVA", "alias": "rocket-roll-san-rafael", "name": "Rocket Roll", "image_url": "https://s3-media3.fl.yelpcdn.com/bphoto/twOdoRb3jg4bF5C6eJXWnw/o.jpg", "is_closed": false, "url": "https://www.yelp.com/biz/rocket-roll-san-rafael?adjust_creative=K_rJo7VUP5JRiFo1Dydvmw&utm_campaign=yelp_api_v3&utm_medium=api_v3_business_search&utm_source=K_rJo7VUP5JRiFo1Dydvmw", "review_count": 91, "categories": [{"alias": "japanese", "title": "Japanese"}, {"alias": "sushi", "title": "Sushi Bars"}], "rating": 3.5, "coordinates": {"latitude": 37.9730599, "longitude": -122.52849}, "transactions": ["pickup", "delivery"], "price": "$", "location": {"address1": "1109 4th St", "address2": null, "address3": "", "city": "San Rafael", "zip_code": "94901", "country": "US", "state": "CA", "display_address": ["1109 4th St", "San Rafael, CA 94901"]}, "phone": "+14158660537", "display_phone": "(415) 866-0537", "distance": 13592.094436758569}, {"id": "bZ2EYxzELhSDfDHYtVd-Cw", "alias": "street-social-petaluma", "name": "Street Social", "image_url": "https://s3-media2.fl.yelpcdn.com/bphoto/eTp_AZ21BabLKMIlvg40tg/o.jpg", "is_closed": false, "url": "https://www.yelp.com/biz/street-social-petaluma?adjust_creative=K_rJo7VUP5JRiFo1Dydvmw&utm_campaign=yelp_api_v3&utm_medium=api_v3_business_search&utm_source=K_rJo7VUP5JRiFo1Dydvmw", "review_count": 17, "categories": [{"alias": "newamerican", "title": "American (New)"}, {"alias": "wine_bars", "title": "Wine Bars"}], "rating": 5.0, "coordinates": {"latitude": 38.23370767, "longitude": -122.64037033}, "transactions": [], "location": {"address1": "29 Petaluma Blvd N", "address2": "Ste F", "address3": null, "city": "Petaluma", "zip_code": "94952", "country": "US", "state": "CA", "display_address": ["29 Petaluma Blvd N", "Ste F", "Petaluma, CA 94952"]}, "phone": "+17077746185", "display_phone": "(707) 774-6185", "distance": 17130.33105644159}, {"id": "-DfaqvIQAw8vD3ZFAxo_eQ", "alias": "the-melting-pot-larkspur-2", "name": "The Melting Pot", "image_url": "https://s3-media2.fl.yelpcdn.com/bphoto/tMeUbkCIjOL9NvhiEyrDOQ/o.jpg", "is_closed": false, "url": "https://www.yelp.com/biz/the-melting-pot-larkspur-2?adjust_creative=K_rJo7VUP5JRiFo1Dydvmw&utm_campaign=yelp_api_v3&utm_medium=api_v3_business_search&utm_source=K_rJo7VUP5JRiFo1Dydvmw", "review_count": 963, "categories": [{"alias": "fondue", "title": "Fondue"}], "rating": 4.0, "coordinates": {"latitude": 37.94485, "longitude": -122.50552}, "transactions": [], "price": "$$$", "location": {"address1": "125 E Sir Francis Drake Blvd", "address2": "", "address3": "", "city": "Larkspur", "zip_code": "94939", "country": "US", "state": "CA", "display_address": ["125 E Sir Francis Drake Blvd", "Larkspur, CA 94939"]}, "phone": "+14154616358", "display_phone": "(415) 461-6358", "distance": 17141.05698574149}, {"id": "ToMm3CX4JHk6k4SRqWJxDQ", "alias": "asian-market-san-rafael", "name": "Asian Market", "image_url": "https://s3-media1.fl.yelpcdn.com/bphoto/jjGkhmsFKf6bgkJDt0dt-A/o.jpg", "is_closed": false, "url": "https://www.yelp.com/biz/asian-market-san-rafael?adjust_creative=K_rJo7VUP5JRiFo1Dydvmw&utm_campaign=yelp_api_v3&utm_medium=api_v3_business_search&utm_source=K_rJo7VUP5JRiFo1Dydvmw", "review_count": 82, "categories": [{"alias": "grocery", "title": "Grocery"}], "rating": 4.0, "coordinates": {"latitude": 37.971356, "longitude": -122.517748}, "transactions": [], "price": "$$", "location": {"address1": "5 Mary St", "address2": "", "address3": "", "city": "San Rafael", "zip_code": "94901", "country": "US", "state": "CA", "display_address": ["5 Mary St", "San Rafael, CA 94901"]}, "phone": "+14154597133", "display_phone": "(415) 459-7133", "distance": 14005.953406122024}, {"id": "WjAM1QLMQXo7GLpGHtg28w", "alias": "crepevine-san-rafael-2", "name": "Crepevine", "image_url": "https://s3-media2.fl.yelpcdn.com/bphoto/nbAsMXnzNNIdzBQE2oiEXQ/o.jpg", "is_closed": false, "url": "https://www.yelp.com/biz/crepevine-san-rafael-2?adjust_creative=K_rJo7VUP5JRiFo1Dydvmw&utm_campaign=yelp_api_v3&utm_medium=api_v3_business_search&utm_source=K_rJo7VUP5JRiFo1Dydvmw", "review_count": 179, "categories": [{"alias": "newamerican", "title": "American (New)"}, {"alias": "breakfast_brunch", "title": "Breakfast & Brunch"}, {"alias": "creperies", "title": "Creperies"}], "rating": 4.0, "coordinates": {"latitude": 37.973071, "longitude": -122.528961}, "transactions": ["pickup", "delivery"], "price": "$$", "location": {"address1": "1133 4th St", "address2": "", "address3": null, "city": "San Rafael", "zip_code": "94901", "country": "US", "state": "CA", "display_address": ["1133 4th St", "San Rafael, CA 94901"]}, "phone": "+14152578822", "display_phone": "(415) 257-8822", "distance": 13579.567676167244}, {"id": "3524Kedp0Wzeecx7_5AB4Q", "alias": "taco-bell-novato-3", "name": "Taco Bell", "image_url": "https://s3-media1.fl.yelpcdn.com/bphoto/2itja8TG-XIQpdJQMx4eQA/o.jpg", "is_closed": false, "url": "https://www.yelp.com/biz/taco-bell-novato-3?adjust_creative=K_rJo7VUP5JRiFo1Dydvmw&utm_campaign=yelp_api_v3&utm_medium=api_v3_business_search&utm_source=K_rJo7VUP5JRiFo1Dydvmw", "review_count": 41, "categories": [{"alias": "tacos", "title": "Tacos"}, {"alias": "breakfast_brunch", "title": "Breakfast & Brunch"}], "rating": 3.0, "coordinates": {"latitude": 38.0941622820273, "longitude": -122.555200240364}, "transactions": ["delivery"], "price": "$", "location": {"address1": "180 Rowland Blvd", "address2": "", "address3": "", "city": "Novato", "zip_code": "94945", "country": "US", "state": "CA", "display_address": ["180 Rowland Blvd", "Novato, CA 94945"]}, "phone": "+14158984003", "display_phone": "(415) 898-4003", "distance": 636.0310031434145}, {"id": "IShRJGwoIF-76eDqDOhm1g", "alias": "famous-deli-and-bakery-novato", "name": "Famous Deli & Bakery", "image_url": "https://s3-media2.fl.yelpcdn.com/bphoto/-bLHxnKnoVBrNkAfonlb4A/o.jpg", "is_closed": false, "url": "https://www.yelp.com/biz/famous-deli-and-bakery-novato?adjust_creative=K_rJo7VUP5JRiFo1Dydvmw&utm_campaign=yelp_api_v3&utm_medium=api_v3_business_search&utm_source=K_rJo7VUP5JRiFo1Dydvmw", "review_count": 6, "categories": [{"alias": "beer_and_wine", "title": "Beer, Wine & Spirits"}, {"alias": "delis", "title": "Delis"}, {"alias": "donuts", "title": "Donuts"}], "rating": 3.5, "coordinates": {"latitude": 38.06747, "longitude": -122.53908}, "transactions": [], "price": "$", "location": {"address1": "341 Enfrente Rd", "address2": "", "address3": "", "city": "Novato", "zip_code": "94949", "country": "US", "state": "CA", "display_address": ["341 Enfrente Rd", "Novato, CA 94949"]}, "phone": "+14158835135", "display_phone": "(415) 883-5135", "distance": 3430.1777726782343}, {"id": "EY27V9p2kSxxse6zZRdEbA", "alias": "blu-point-seafood-co-staunton-7", "name": "Blu Point Seafood Co", "image_url": "https://s3-media2.fl.yelpcdn.com/bphoto/60GYqreM0-J6e9QDNr1NUQ/o.jpg", "is_closed": false, "url": "https://www.yelp.com/biz/blu-point-seafood-co-staunton-7?adjust_creative=K_rJo7VUP5JRiFo1Dydvmw&utm_campaign=yelp_api_v3&utm_medium=api_v3_business_search&utm_source=K_rJo7VUP5JRiFo1Dydvmw", "review_count": 26, "categories": [{"alias": "seafood", "title": "Seafood"}], "rating": 4.0, "coordinates": {"latitude": 38.14944, "longitude": -79.07457}, "transactions": ["delivery"], "location": {"address1": "123 W Beverley St", "address2": null, "address3": null, "city": "Staunton", "zip_code": "24401", "country": "US", "state": "VA", "display_address": ["123 W Beverley St", "Staunton, VA 24401"]}, "phone": "+15407120291", "display_phone": "(540) 712-0291", "distance": 15981.735520530958}, {"id": "y3OLBbWY89OV3erUULCafg", "alias": "roadside-bbq-san-rafael", "name": "Roadside BBQ", "image_url": "https://s3-media3.fl.yelpcdn.com/bphoto/nFIxWJV7EdGfn_MSnrbZHw/o.jpg", "is_closed": false, "url": "https://www.yelp.com/biz/roadside-bbq-san-rafael?adjust_creative=K_rJo7VUP5JRiFo1Dydvmw&utm_campaign=yelp_api_v3&utm_medium=api_v3_business_search&utm_source=K_rJo7VUP5JRiFo1Dydvmw", "review_count": 309, "categories": [{"alias": "bbq", "title": "Barbeque"}], "rating": 3.5, "coordinates": {"latitude": 38.0041267558653, "longitude": -122.545377247377}, "transactions": ["pickup", "delivery"], "price": "$$", "location": {"address1": "5000 Northgate Mall", "address2": "Ste 135", "address3": "", "city": "San Rafael", "zip_code": "94903", "country": "US", "state": "CA", "display_address": ["5000 Northgate Mall", "Ste 135", "San Rafael, CA 94903"]}, "phone": "+14154797200", "display_phone": "(415) 479-7200", "distance": 9921.167295976533}, {"id": "6KSd7tyzxcy2XXcHQjeFag", "alias": "the-marin-french-cheese-petaluma", "name": "The Marin French Cheese", "image_url": "https://s3-media3.fl.yelpcdn.com/bphoto/pWZZ8UYy_0SjDml7DYhk_w/o.jpg", "is_closed": false, "url": "https://www.yelp.com/biz/the-marin-french-cheese-petaluma?adjust_creative=K_rJo7VUP5JRiFo1Dydvmw&utm_campaign=yelp_api_v3&utm_medium=api_v3_business_search&utm_source=K_rJo7VUP5JRiFo1Dydvmw", "review_count": 268, "categories": [{"alias": "cheese", "title": "Cheese Shops"}, {"alias": "delis", "title": "Delis"}, {"alias": "beer_and_wine", "title": "Beer, Wine & Spirits"}], "rating": 4.0, "coordinates": {"latitude": 38.136986940524, "longitude": -122.710590362549}, "transactions": [], "price": "$$", "location": {"address1": "7510 Pt Reyes Petaluma Rd", "address2": "", "address3": "", "city": "Petaluma", "zip_code": "94952", "country": "US", "state": "CA", "display_address": ["7510 Pt Reyes Petaluma Rd", "Petaluma, CA 94952"]}, "phone": "+17077626001", "display_phone": "(707) 762-6001", "distance": 13905.491642421779}, {"id": "ADBG3lIz-QtqtR8_nXsdRw", "alias": "wildfox-novato-2", "name": "Wildfox", "image_url": "https://s3-media3.fl.yelpcdn.com/bphoto/L1PZZ6qvNOpP4yWiCVzyYw/o.jpg", "is_closed": false, "url": "https://www.yelp.com/biz/wildfox-novato-2?adjust_creative=K_rJo7VUP5JRiFo1Dydvmw&utm_campaign=yelp_api_v3&utm_medium=api_v3_business_search&utm_source=K_rJo7VUP5JRiFo1Dydvmw", "review_count": 553, "categories": [{"alias": "tradamerican", "title": "American (Traditional)"}], "rating": 3.5, "coordinates": {"latitude": 38.0513305664062, "longitude": -122.532333374023}, "transactions": ["pickup", "delivery"], "price": "$$", "location": {"address1": "225 Alameda Del Prado", "address2": "", "address3": "", "city": "Novato", "zip_code": "94949", "country": "US", "state": "CA", "display_address": ["225 Alameda Del Prado", "Novato, CA 94949"]}, "phone": "+14158839125", "display_phone": "(415) 883-9125", "distance": 5249.678038313848}, {"id": "mBSKj9hzWikf5ZkhXgpMvg", "alias": "original-buffalo-wings-restaurant-novato", "name": "Original Buffalo Wings Restaurant", "image_url": "https://s3-media2.fl.yelpcdn.com/bphoto/irwnZmzGSv6S8G-U7rWUFA/o.jpg", "is_closed": false, "url": "https://www.yelp.com/biz/original-buffalo-wings-restaurant-novato?adjust_creative=K_rJo7VUP5JRiFo1Dydvmw&utm_campaign=yelp_api_v3&utm_medium=api_v3_business_search&utm_source=K_rJo7VUP5JRiFo1Dydvmw", "review_count": 48, "categories": [{"alias": "chicken_wings", "title": "Chicken Wings"}], "rating": 2.5, "coordinates": {"latitude": 38.06548, "longitude": -122.53983}, "transactions": [], "price": "$", "location": {"address1": "520 Alameda Del Prado", "address2": "", "address3": "", "city": "Novato", "zip_code": "94949", "country": "US", "state": "CA", "display_address": ["520 Alameda Del Prado", "Novato, CA 94949"]}, "phone": "+14158833131", "display_phone": "(415) 883-3131", "distance": 3626.9183747368747}, {"id": "fKp3qQzezcUQTlMOOb5RSw", "alias": "ljs-deli-san-rafael", "name": "LJ's Deli", "image_url": "https://s3-media1.fl.yelpcdn.com/bphoto/vgvLdstQbWiQvWBb9DVixg/o.jpg", "is_closed": false, "url": "https://www.yelp.com/biz/ljs-deli-san-rafael?adjust_creative=K_rJo7VUP5JRiFo1Dydvmw&utm_campaign=yelp_api_v3&utm_medium=api_v3_business_search&utm_source=K_rJo7VUP5JRiFo1Dydvmw", "review_count": 56, "categories": [{"alias": "sandwiches", "title": "Sandwiches"}], "rating": 4.5, "coordinates": {"latitude": 38.016874, "longitude": -122.539596}, "transactions": ["delivery"], "price": "$", "location": {"address1": "4380 Redwood Hwy", "address2": "Ste B15", "address3": "", "city": "San Rafael", "zip_code": "94903", "country": "US", "state": "CA", "display_address": ["4380 Redwood Hwy", "Ste B15", "San Rafael, CA 94903"]}, "phone": "+14154798081", "display_phone": "(415) 479-8081", "distance": 8623.237514781655}, {"id": "eJtzEiz3lcapFOL0C9Dxlg", "alias": "banh-mi-and-coffee-san-rafael-3", "name": "Banh Mi & Coffee", "image_url": "https://s3-media4.fl.yelpcdn.com/bphoto/QdFw_G7ID7Bw5LkVytm7Ig/o.jpg", "is_closed": false, "url": "https://www.yelp.com/biz/banh-mi-and-coffee-san-rafael-3?adjust_creative=K_rJo7VUP5JRiFo1Dydvmw&utm_campaign=yelp_api_v3&utm_medium=api_v3_business_search&utm_source=K_rJo7VUP5JRiFo1Dydvmw", "review_count": 29, "categories": [{"alias": "coffee", "title": "Coffee & Tea"}, {"alias": "sandwiches", "title": "Sandwiches"}, {"alias": "hotdog", "title": "Hot Dogs"}], "rating": 4.5, "coordinates": {"latitude": 37.971703, "longitude": -122.518997}, "transactions": [], "price": "$", "location": {"address1": "969 Grand Ave", "address2": null, "address3": null, "city": "San Rafael", "zip_code": "94901", "country": "US", "state": "CA", "display_address": ["969 Grand Ave", "San Rafael, CA 94901"]}, "phone": "+14152581688", "display_phone": "(415) 258-1688", "distance": 13938.85756790719}, {"id": "qltapfwDOWY33dncLCLnHQ", "alias": "star-restaurant-novato", "name": "Star Restaurant", "image_url": "https://s3-media2.fl.yelpcdn.com/bphoto/JjIThdXFazNKJkZRbnPY9g/o.jpg", "is_closed": false, "url": "https://www.yelp.com/biz/star-restaurant-novato?adjust_creative=K_rJo7VUP5JRiFo1Dydvmw&utm_campaign=yelp_api_v3&utm_medium=api_v3_business_search&utm_source=K_rJo7VUP5JRiFo1Dydvmw", "review_count": 146, "categories": [{"alias": "tradamerican", "title": "American (Traditional)"}, {"alias": "breakfast_brunch", "title": "Breakfast & Brunch"}], "rating": 3.0, "coordinates": {"latitude": 38.10669, "longitude": -122.57909}, "transactions": ["delivery"], "price": "$$", "location": {"address1": "1700 Novato Blvd", "address2": "", "address3": "", "city": "Novato", "zip_code": "94947", "country": "US", "state": "CA", "display_address": ["1700 Novato Blvd", "Novato, CA 94947"]}, "phone": "+14158971970", "display_phone": "(415) 897-1970", "distance": 2174.84509360455}, {"id": "9s1e7pz4ZcSnzvZuv_rTXg", "alias": "shangri-la-organic-kitchen-san-rafael", "name": "Shangri-La Organic Kitchen", "image_url": "https://s3-media2.fl.yelpcdn.com/bphoto/4CV09-Ajshpz3Uczihz_Cg/o.jpg", "is_closed": false, "url": "https://www.yelp.com/biz/shangri-la-organic-kitchen-san-rafael?adjust_creative=K_rJo7VUP5JRiFo1Dydvmw&utm_campaign=yelp_api_v3&utm_medium=api_v3_business_search&utm_source=K_rJo7VUP5JRiFo1Dydvmw", "review_count": 36, "categories": [{"alias": "himalayan", "title": "Himalayan/Nepalese"}, {"alias": "indpak", "title": "Indian"}, {"alias": "beerbar", "title": "Beer Bar"}], "rating": 4.5, "coordinates": {"latitude": 37.972585, "longitude": -122.52551333}, "transactions": ["restaurant_reservation", "pickup", "delivery"], "location": {"address1": "869 4th St", "address2": null, "address3": "", "city": "San Rafael", "zip_code": "94901", "country": "US", "state": "CA", "display_address": ["869 4th St", "San Rafael, CA 94901"]}, "phone": "+14154593315", "display_phone": "(415) 459-3315", "distance": 13702.593639027804}, {"id": "lzIBEwtiTGaqC-B_xV-drw", "alias": "adobe-creek-brewing-novato-2", "name": "Adobe Creek Brewing", "image_url": "https://s3-media3.fl.yelpcdn.com/bphoto/WqDnLVcsHlNEH9_Z_l11oA/o.jpg", "is_closed": false, "url": "https://www.yelp.com/biz/adobe-creek-brewing-novato-2?adjust_creative=K_rJo7VUP5JRiFo1Dydvmw&utm_campaign=yelp_api_v3&utm_medium=api_v3_business_search&utm_source=K_rJo7VUP5JRiFo1Dydvmw", "review_count": 12, "categories": [{"alias": "breweries", "title": "Breweries"}], "rating": 4.5, "coordinates": {"latitude": 38.07336, "longitude": -122.53579}, "transactions": [], "price": "$", "location": {"address1": "67 Galli Dr", "address2": "Ste E", "address3": "", "city": "Novato", "zip_code": "94949", "country": "US", "state": "CA", "display_address": ["67 Galli Dr", "Ste E", "Novato, CA 94949"]}, "phone": "+14155064565", "display_phone": "(415) 506-4565", "distance": 3122.9501983098403}, {"id": "kdh_Qhga4vf9GAVVyjFUxQ", "alias": "matsuyama-novato", "name": "Matsuyama", "image_url": "https://s3-media4.fl.yelpcdn.com/bphoto/_W8qHmPQja4ggqEpisP3HA/o.jpg", "is_closed": false, "url": "https://www.yelp.com/biz/matsuyama-novato?adjust_creative=K_rJo7VUP5JRiFo1Dydvmw&utm_campaign=yelp_api_v3&utm_medium=api_v3_business_search&utm_source=K_rJo7VUP5JRiFo1Dydvmw", "review_count": 130, "categories": [{"alias": "japanese", "title": "Japanese"}], "rating": 3.5, "coordinates": {"latitude": 38.1056068, "longitude": -122.5712905}, "transactions": ["delivery"], "price": "$$", "location": {"address1": "939 Front St", "address2": null, "address3": "", "city": "Novato", "zip_code": "94945", "country": "US", "state": "CA", "display_address": ["939 Front St", "Novato, CA 94945"]}, "phone": "+14152099823", "display_phone": "(415) 209-9823", "distance": 1676.8613255810253}, {"id": "1Wi0_uIHExgp1dGaFc-Htg", "alias": "eduardos-san-rafael", "name": "Eduardo's", "image_url": "https://s3-media3.fl.yelpcdn.com/bphoto/BKsrjfDBQ4y248D35ReJQw/o.jpg", "is_closed": false, "url": "https://www.yelp.com/biz/eduardos-san-rafael?adjust_creative=K_rJo7VUP5JRiFo1Dydvmw&utm_campaign=yelp_api_v3&utm_medium=api_v3_business_search&utm_source=K_rJo7VUP5JRiFo1Dydvmw", "review_count": 219, "categories": [{"alias": "breakfast_brunch", "title": "Breakfast & Brunch"}, {"alias": "tradamerican", "title": "American (Traditional)"}], "rating": 4.0, "coordinates": {"latitude": 38.01127, "longitude": -122.54103}, "transactions": ["pickup", "delivery"], "price": "$$", "location": {"address1": "4200 Redwood Hwy", "address2": "", "address3": "", "city": "San Rafael", "zip_code": "94903", "country": "US", "state": "CA", "display_address": ["4200 Redwood Hwy", "San Rafael, CA 94903"]}, "phone": "+14154797500", "display_phone": "(415) 479-7500", "distance": 9205.87937979431}, {"id": "iTlQBeJBQD86eIolbT4YQg", "alias": "the-lodge-fairfax-2", "name": "The Lodge", "image_url": "https://s3-media2.fl.yelpcdn.com/bphoto/rOkiTx9cr00eLEIy_aKYog/o.jpg", "is_closed": false, "url": "https://www.yelp.com/biz/the-lodge-fairfax-2?adjust_creative=K_rJo7VUP5JRiFo1Dydvmw&utm_campaign=yelp_api_v3&utm_medium=api_v3_business_search&utm_source=K_rJo7VUP5JRiFo1Dydvmw", "review_count": 35, "categories": [{"alias": "newamerican", "title": "American (New)"}, {"alias": "salad", "title": "Salad"}, {"alias": "sandwiches", "title": "Sandwiches"}], "rating": 4.5, "coordinates": {"latitude": 37.986481, "longitude": -122.579678}, "transactions": ["delivery"], "location": {"address1": "1573 Sir Francis Drake Blvd", "address2": "", "address3": null, "city": "Fairfax", "zip_code": "94930", "country": "US", "state": "CA", "display_address": ["1573 Sir Francis Drake Blvd", "Fairfax, CA 94930"]}, "phone": "+14159915625", "display_phone": "(415) 991-5625", "distance": 11874.748020123214}, {"id": "Q5VOvK9PK5gd0aXF1A-06Q", "alias": "nicasio-valley-cheese-company-nicasio", "name": "Nicasio Valley Cheese Company", "image_url": "https://s3-media1.fl.yelpcdn.com/bphoto/QN2JyiSMKB-XPRUawOWqtw/o.jpg", "is_closed": false, "url": "https://www.yelp.com/biz/nicasio-valley-cheese-company-nicasio?adjust_creative=K_rJo7VUP5JRiFo1Dydvmw&utm_campaign=yelp_api_v3&utm_medium=api_v3_business_search&utm_source=K_rJo7VUP5JRiFo1Dydvmw", "review_count": 87, "categories": [{"alias": "cheese", "title": "Cheese Shops"}], "rating": 4.5, "coordinates": {"latitude": 38.0658762193734, "longitude": -122.701946239032}, "transactions": [], "price": "$$", "location": {"address1": "5300 Nicasio Valley Rd", "address2": "", "address3": "", "city": "Nicasio", "zip_code": "94946", "country": "US", "state": "CA", "display_address": ["5300 Nicasio Valley Rd", "Nicasio, CA 94946"]}, "phone": "+14156626200", "display_phone": "(415) 662-6200", "distance": 12589.776883364497}, {"id": "FOLuPtL747Q9-RHVpMMdbA", "alias": "my-sweetheart-wifes-vegan-kitchen-san-rafael", "name": "My Sweetheart Wife's Vegan Kitchen", "image_url": "https://s3-media1.fl.yelpcdn.com/bphoto/bAs5Qj_4WEyNtG3n0hzplA/o.jpg", "is_closed": false, "url": "https://www.yelp.com/biz/my-sweetheart-wifes-vegan-kitchen-san-rafael?adjust_creative=K_rJo7VUP5JRiFo1Dydvmw&utm_campaign=yelp_api_v3&utm_medium=api_v3_business_search&utm_source=K_rJo7VUP5JRiFo1Dydvmw", "review_count": 7, "categories": [{"alias": "bakeries", "title": "Bakeries"}, {"alias": "vegan", "title": "Vegan"}, {"alias": "desserts", "title": "Desserts"}], "rating": 5.0, "coordinates": {"latitude": 37.9437950416942, "longitude": -122.499775755265}, "transactions": [], "location": {"address1": "", "address2": "", "address3": null, "city": "San Rafael", "zip_code": "94901", "country": "US", "state": "CA", "display_address": ["San Rafael, CA 94901"]}, "phone": "+14154540297", "display_phone": "(415) 454-0297", "distance": 17399.87901934307}, {"id": "fEieX4XShBAmlSWJhF2w_w", "alias": "m-h-bread-and-butter-san-anselmo", "name": "M.H.Bread and Butter", "image_url": "https://s3-media1.fl.yelpcdn.com/bphoto/Ce-CIRNoOP4vijF_368bfw/o.jpg", "is_closed": false, "url": "https://www.yelp.com/biz/m-h-bread-and-butter-san-anselmo?adjust_creative=K_rJo7VUP5JRiFo1Dydvmw&utm_campaign=yelp_api_v3&utm_medium=api_v3_business_search&utm_source=K_rJo7VUP5JRiFo1Dydvmw", "review_count": 366, "categories": [{"alias": "bakeries", "title": "Bakeries"}, {"alias": "coffee", "title": "Coffee & Tea"}, {"alias": "sandwiches", "title": "Sandwiches"}], "rating": 4.5, "coordinates": {"latitude": 37.970569, "longitude": -122.561661}, "transactions": ["delivery"], "price": "$$", "location": {"address1": "101 San Anselmo Ave", "address2": "", "address3": "", "city": "San Anselmo", "zip_code": "94960", "country": "US", "state": "CA", "display_address": ["101 San Anselmo Ave", "San Anselmo, CA 94960"]}, "phone": "+14157554575", "display_phone": "(415) 755-4575", "distance": 13543.968269786423}, {"id": "NWKljN-W5UeWwoAzpuPIBQ", "alias": "rockys-quality-meats-san-rafael", "name": "Rocky's Quality Meats", "image_url": "https://s3-media2.fl.yelpcdn.com/bphoto/v0Z1vhOXVTslKJeWwY7DVg/o.jpg", "is_closed": false, "url": "https://www.yelp.com/biz/rockys-quality-meats-san-rafael?adjust_creative=K_rJo7VUP5JRiFo1Dydvmw&utm_campaign=yelp_api_v3&utm_medium=api_v3_business_search&utm_source=K_rJo7VUP5JRiFo1Dydvmw", "review_count": 76, "categories": [{"alias": "meats", "title": "Meat Shops"}, {"alias": "delis", "title": "Delis"}, {"alias": "butcher", "title": "Butcher"}], "rating": 4.5, "coordinates": {"latitude": 37.99589, "longitude": -122.52838}, "transactions": ["delivery"], "price": "$", "location": {"address1": "71 San Pablo Ave", "address2": "", "address3": "", "city": "San Rafael", "zip_code": "94903", "country": "US", "state": "CA", "display_address": ["71 San Pablo Ave", "San Rafael, CA 94903"]}, "phone": "+14154792131", "display_phone": "(415) 479-2131", "distance": 11128.62957027545}, {"id": "jNKn6JsLv2OnLJy37TZOQQ", "alias": "hog-island-larkspur-larkspur", "name": "Hog Island Larkspur", "image_url": "https://s3-media3.fl.yelpcdn.com/bphoto/oHxuPPgcApg2IU0l0gJHUw/o.jpg", "is_closed": false, "url": "https://www.yelp.com/biz/hog-island-larkspur-larkspur?adjust_creative=K_rJo7VUP5JRiFo1Dydvmw&utm_campaign=yelp_api_v3&utm_medium=api_v3_business_search&utm_source=K_rJo7VUP5JRiFo1Dydvmw", "review_count": 7, "categories": [{"alias": "seafood", "title": "Seafood"}, {"alias": "tapasmallplates", "title": "Tapas/Small Plates"}, {"alias": "beer_and_wine", "title": "Beer, Wine & Spirits"}], "rating": 5.0, "coordinates": {"latitude": 37.946722, "longitude": -122.508591}, "transactions": ["pickup", "delivery"], "location": {"address1": "2401 Larkspur Landing Cir", "address2": null, "address3": "Marin Country Mart", "city": "Larkspur", "zip_code": "94939", "country": "US", "state": "CA", "display_address": ["2401 Larkspur Landing Cir", "Marin Country Mart", "Larkspur, CA 94939"]}, "phone": "+16282535905", "display_phone": "(628) 253-5905", "distance": 16855.58101960638}, {"id": "RJ7g_aBVHiJ9SbxzjG5JbQ", "alias": "el-perol-restaurant-san-rafael", "name": "El Perol Restaurant", "image_url": "https://s3-media3.fl.yelpcdn.com/bphoto/QVAb_6BbtPFVES0XouAbgA/o.jpg", "is_closed": false, "url": "https://www.yelp.com/biz/el-perol-restaurant-san-rafael?adjust_creative=K_rJo7VUP5JRiFo1Dydvmw&utm_campaign=yelp_api_v3&utm_medium=api_v3_business_search&utm_source=K_rJo7VUP5JRiFo1Dydvmw", "review_count": 145, "categories": [{"alias": "peruvian", "title": "Peruvian"}], "rating": 4.5, "coordinates": {"latitude": 37.9726054163208, "longitude": -122.529416393783}, "transactions": ["pickup"], "price": "$$", "location": {"address1": "916 B St", "address2": "", "address3": null, "city": "San Rafael", "zip_code": "94901", "country": "US", "state": "CA", "display_address": ["916 B St", "San Rafael, CA 94901"]}, "phone": "+14152957980", "display_phone": "(415) 295-7980", "distance": 13621.709706517298}, {"id": "c8XSKf4PP0d8MteyvKfL7g", "alias": "hulu-wa-cuisine-san-rafael", "name": "Hulu Wa Cuisine", "image_url": "https://s3-media2.fl.yelpcdn.com/bphoto/XqrGLlGve7AblqlimDl0kw/o.jpg", "is_closed": false, "url": "https://www.yelp.com/biz/hulu-wa-cuisine-san-rafael?adjust_creative=K_rJo7VUP5JRiFo1Dydvmw&utm_campaign=yelp_api_v3&utm_medium=api_v3_business_search&utm_source=K_rJo7VUP5JRiFo1Dydvmw", "review_count": 44, "categories": [{"alias": "chinese", "title": "Chinese"}], "rating": 4.0, "coordinates": {"latitude": 38.01046, "longitude": -122.54112}, "transactions": ["pickup", "delivery"], "location": {"address1": "4166 Redwood Hwy", "address2": "", "address3": null, "city": "San Rafael", "zip_code": "94903", "country": "US", "state": "CA", "display_address": ["4166 Redwood Hwy", "San Rafael, CA 94903"]}, "phone": "+14154795838", "display_phone": "(415) 479-5838", "distance": 9286.273120758346}, {"id": "USljZmbtpya0BEKocSLbUw", "alias": "arti-cafe-lagunitas-lagunitas-forest-knolls-2", "name": "Arti Cafe Lagunitas", "image_url": "https://s3-media2.fl.yelpcdn.com/bphoto/DfuaRJOosxDaArk8UANiCg/o.jpg", "is_closed": false, "url": "https://www.yelp.com/biz/arti-cafe-lagunitas-lagunitas-forest-knolls-2?adjust_creative=K_rJo7VUP5JRiFo1Dydvmw&utm_campaign=yelp_api_v3&utm_medium=api_v3_business_search&utm_source=K_rJo7VUP5JRiFo1Dydvmw", "review_count": 193, "categories": [{"alias": "indpak", "title": "Indian"}], "rating": 4.5, "coordinates": {"latitude": 38.01266, "longitude": -122.70152}, "transactions": ["pickup"], "price": "$$", "location": {"address1": "7282 Sir Francis Drake Blvd", "address2": "", "address3": "", "city": "Lagunitas-Forest Knolls", "zip_code": "94938", "country": "US", "state": "CA", "display_address": ["7282 Sir Francis Drake Blvd", "Lagunitas-Forest Knolls, CA 94938"]}, "phone": "+14154884700", "display_phone": "(415) 488-4700", "distance": 15084.92815100195}, {"id": "SWBJVkNvBnw6N6fOVHDbZQ", "alias": "hilltop-1892-novato", "name": "Hilltop 1892", "image_url": "https://s3-media1.fl.yelpcdn.com/bphoto/wMxZforXtLWIPX3jeWYR7A/o.jpg", "is_closed": false, "url": "https://www.yelp.com/biz/hilltop-1892-novato?adjust_creative=K_rJo7VUP5JRiFo1Dydvmw&utm_campaign=yelp_api_v3&utm_medium=api_v3_business_search&utm_source=K_rJo7VUP5JRiFo1Dydvmw", "review_count": 418, "categories": [{"alias": "newamerican", "title": "American (New)"}], "rating": 3.5, "coordinates": {"latitude": 38.101796, "longitude": -122.567452}, "transactions": ["delivery"], "price": "$$", "location": {"address1": "850 Lamont Ave", "address2": "", "address3": "", "city": "Novato", "zip_code": "94945", "country": "US", "state": "CA", "display_address": ["850 Lamont Ave", "Novato, CA 94945"]}, "phone": "+14158931892", "display_phone": "(415) 893-1892", "distance": 1191.8892504050789}, {"id": "P6XVf4YVVW8aPRt4MBBqJg", "alias": "lunchette-petaluma", "name": "Lunchette", "image_url": "https://s3-media2.fl.yelpcdn.com/bphoto/rv9k34oyjffReepYyerGsQ/o.jpg", "is_closed": false, "url": "https://www.yelp.com/biz/lunchette-petaluma?adjust_creative=K_rJo7VUP5JRiFo1Dydvmw&utm_campaign=yelp_api_v3&utm_medium=api_v3_business_search&utm_source=K_rJo7VUP5JRiFo1Dydvmw", "review_count": 48, "categories": [{"alias": "pizza", "title": "Pizza"}, {"alias": "salad", "title": "Salad"}], "rating": 5.0, "coordinates": {"latitude": 38.2328030842586, "longitude": -122.639882516915}, "transactions": [], "price": "$$", "location": {"address1": "25 4th St", "address2": "", "address3": null, "city": "Petaluma", "zip_code": "94952", "country": "US", "state": "CA", "display_address": ["25 4th St", "Petaluma, CA 94952"]}, "phone": "+17072417443", "display_phone": "(707) 241-7443", "distance": 17031.565188849057}, {"id": "BqrgGkJg_lkocQZNXYluFQ", "alias": "lo-cocos-authentic-italian-pizzeria-san-rafael", "name": "Lo Coco's Authentic Italian Pizzeria", "image_url": "https://s3-media4.fl.yelpcdn.com/bphoto/Yd3kmv_0mazcyaCStiqNGg/o.jpg", "is_closed": false, "url": "https://www.yelp.com/biz/lo-cocos-authentic-italian-pizzeria-san-rafael?adjust_creative=K_rJo7VUP5JRiFo1Dydvmw&utm_campaign=yelp_api_v3&utm_medium=api_v3_business_search&utm_source=K_rJo7VUP5JRiFo1Dydvmw", "review_count": 202, "categories": [{"alias": "pizza", "title": "Pizza"}], "rating": 4.0, "coordinates": {"latitude": 38.01343, "longitude": -122.56025}, "transactions": [], "price": "$$", "location": {"address1": "631 Del Ganado Rd", "address2": "", "address3": "", "city": "San Rafael", "zip_code": "94903", "country": "US", "state": "CA", "display_address": ["631 Del Ganado Rd", "San Rafael, CA 94903"]}, "phone": "+14154723323", "display_phone": "(415) 472-3323", "distance": 8763.280350745665}, {"id": "w7sxjhvEaspA79YiW0FVqQ", "alias": "77-social-club-at-bay-club-stonetree-novato-2", "name": "77 Social Club at Bay Club StoneTree", "image_url": "https://s3-media2.fl.yelpcdn.com/bphoto/_Z3uMVg1dKeu3d3G9bAD7A/o.jpg", "is_closed": false, "url": "https://www.yelp.com/biz/77-social-club-at-bay-club-stonetree-novato-2?adjust_creative=K_rJo7VUP5JRiFo1Dydvmw&utm_campaign=yelp_api_v3&utm_medium=api_v3_business_search&utm_source=K_rJo7VUP5JRiFo1Dydvmw", "review_count": 7, "categories": [{"alias": "bars", "title": "Bars"}, {"alias": "newamerican", "title": "American (New)"}], "rating": 5.0, "coordinates": {"latitude": 38.10219, "longitude": -122.50964}, "transactions": [], "location": {"address1": "Stonetree Golf Club", "address2": "9 StoneTree Ln", "address3": "", "city": "Novato", "zip_code": "94945", "country": "US", "state": "CA", "display_address": ["Stonetree Golf Club", "9 StoneTree Ln", "Novato, CA 94945"]}, "phone": "+14154932182", "display_phone": "(415) 493-2182", "distance": 4727.576927967901}, {"id": "6nnhLxpK7yCNaGYKNY1TDw", "alias": "sushi-novato-novato", "name": "Sushi Novato", "image_url": "https://s3-media1.fl.yelpcdn.com/bphoto/9i7AIJe4gwrwbuHsztMfrA/o.jpg", "is_closed": false, "url": "https://www.yelp.com/biz/sushi-novato-novato?adjust_creative=K_rJo7VUP5JRiFo1Dydvmw&utm_campaign=yelp_api_v3&utm_medium=api_v3_business_search&utm_source=K_rJo7VUP5JRiFo1Dydvmw", "review_count": 1, "categories": [{"alias": "sushi", "title": "Sushi Bars"}], "rating": 4.0, "coordinates": {"latitude": 38.122797, "longitude": -122.603011}, "transactions": [], "location": {"address1": "155 San Marin Dr", "address2": "Ste A", "address3": null, "city": "Novato", "zip_code": "94945", "country": "US", "state": "CA", "display_address": ["155 San Marin Dr", "Ste A", "Novato, CA 94945"]}, "phone": "", "display_phone": "", "distance": 4927.466863991269}, {"id": "r9l3Ldxfql2eoLiLV2oaiw", "alias": "real-doner-petaluma-4", "name": "Real Doner", "image_url": "https://s3-media3.fl.yelpcdn.com/bphoto/P_bCuo-Forv8k_EqmgjmWw/o.jpg", "is_closed": false, "url": "https://www.yelp.com/biz/real-doner-petaluma-4?adjust_creative=K_rJo7VUP5JRiFo1Dydvmw&utm_campaign=yelp_api_v3&utm_medium=api_v3_business_search&utm_source=K_rJo7VUP5JRiFo1Dydvmw", "review_count": 417, "categories": [{"alias": "turkish", "title": "Turkish"}, {"alias": "mediterranean", "title": "Mediterranean"}], "rating": 4.0, "coordinates": {"latitude": 38.23128, "longitude": -122.63444}, "transactions": [], "price": "$$", "location": {"address1": "307 F St", "address2": "", "address3": "", "city": "Petaluma", "zip_code": "94952", "country": "US", "state": "CA", "display_address": ["307 F St", "Petaluma, CA 94952"]}, "phone": "+17077659555", "display_phone": "(707) 765-9555", "distance": 16687.038708510754}, {"id": "ITgrLhPuW6UUKNgntznu5g", "alias": "cafe-4040-san-rafael", "name": "Cafe 4040", "image_url": "https://s3-media2.fl.yelpcdn.com/bphoto/cRqJk2IreN01BavgcS4IGg/o.jpg", "is_closed": false, "url": "https://www.yelp.com/biz/cafe-4040-san-rafael?adjust_creative=K_rJo7VUP5JRiFo1Dydvmw&utm_campaign=yelp_api_v3&utm_medium=api_v3_business_search&utm_source=K_rJo7VUP5JRiFo1Dydvmw", "review_count": 25, "categories": [{"alias": "sandwiches", "title": "Sandwiches"}, {"alias": "breakfast_brunch", "title": "Breakfast & Brunch"}, {"alias": "cafes", "title": "Cafes"}], "rating": 4.5, "coordinates": {"latitude": 38.00673, "longitude": -122.53836}, "transactions": ["delivery"], "price": "$", "location": {"address1": "4040 Civic Ctr Dr", "address2": "Ste 150", "address3": "", "city": "San Rafael", "zip_code": "94903", "country": "US", "state": "CA", "display_address": ["4040 Civic Ctr Dr", "Ste 150", "San Rafael, CA 94903"]}, "phone": "+14154797590", "display_phone": "(415) 479-7590", "distance": 9827.549282249405}, {"id": "chcy5OiTcxXXi9U_nYCR4A", "alias": "pho-sonoma-petaluma-4", "name": "Pho Sonoma", "image_url": "https://s3-media3.fl.yelpcdn.com/bphoto/boCwI_2OUwmoBdP1SqR8Qg/o.jpg", "is_closed": false, "url": "https://www.yelp.com/biz/pho-sonoma-petaluma-4?adjust_creative=K_rJo7VUP5JRiFo1Dydvmw&utm_campaign=yelp_api_v3&utm_medium=api_v3_business_search&utm_source=K_rJo7VUP5JRiFo1Dydvmw", "review_count": 175, "categories": [{"alias": "vietnamese", "title": "Vietnamese"}], "rating": 4.5, "coordinates": {"latitude": 38.233288, "longitude": -122.63763}, "transactions": [], "price": "$$", "location": {"address1": "140 2nd St", "address2": "Ste 120", "address3": "Petaluma theatre square", "city": "Petaluma", "zip_code": "94952", "country": "US", "state": "CA", "display_address": ["140 2nd St", "Ste 120", "Petaluma theatre square", "Petaluma, CA 94952"]}, "phone": "+17077626888", "display_phone": "(707) 762-6888", "distance": 17003.565230387005}, {"id": "QM3Gn1YK3Z_HHcbR8B0c7w", "alias": "flatiron-san-rafael", "name": "Flatiron", "image_url": "https://s3-media4.fl.yelpcdn.com/bphoto/5wvsLAlXG2puN-QP8NooZg/o.jpg", "is_closed": false, "url": "https://www.yelp.com/biz/flatiron-san-rafael?adjust_creative=K_rJo7VUP5JRiFo1Dydvmw&utm_campaign=yelp_api_v3&utm_medium=api_v3_business_search&utm_source=K_rJo7VUP5JRiFo1Dydvmw", "review_count": 321, "categories": [{"alias": "sportsbars", "title": "Sports Bars"}, {"alias": "tradamerican", "title": "American (Traditional)"}, {"alias": "chicken_wings", "title": "Chicken Wings"}], "rating": 4.0, "coordinates": {"latitude": 37.971156, "longitude": -122.529488}, "transactions": ["delivery"], "price": "$$", "location": {"address1": "724 B St", "address2": "", "address3": "", "city": "San Rafael", "zip_code": "94901", "country": "US", "state": "CA", "display_address": ["724 B St", "San Rafael, CA 94901"]}, "phone": "+14154534318", "display_phone": "(415) 453-4318", "distance": 13778.02350326688}, {"id": "iIWRAOE1aDx2P4CQVRJh2A", "alias": "lavier-latin-fusion-san-rafael-2", "name": "LaVier Latin Fusion", "image_url": "https://s3-media3.fl.yelpcdn.com/bphoto/Km6ic58Vbowl3Q6VFzhUDw/o.jpg", "is_closed": false, "url": "https://www.yelp.com/biz/lavier-latin-fusion-san-rafael-2?adjust_creative=K_rJo7VUP5JRiFo1Dydvmw&utm_campaign=yelp_api_v3&utm_medium=api_v3_business_search&utm_source=K_rJo7VUP5JRiFo1Dydvmw", "review_count": 465, "categories": [{"alias": "latin", "title": "Latin American"}, {"alias": "mexican", "title": "Mexican"}], "rating": 4.5, "coordinates": {"latitude": 37.9739084371276, "longitude": -122.530886046588}, "transactions": ["restaurant_reservation", "pickup", "delivery"], "price": "$$", "location": {"address1": "1025 C St", "address2": "", "address3": null, "city": "San Rafael", "zip_code": "94901", "country": "US", "state": "CA", "display_address": ["1025 C St", "San Rafael, CA 94901"]}, "phone": "+14152957990", "display_phone": "(415) 295-7990", "distance": 13453.337558833913}, {"id": "nCralVzKx61vrqt7ZF7dCQ", "alias": "marys-pizza-shack-novato", "name": "Mary's Pizza Shack", "image_url": "https://s3-media2.fl.yelpcdn.com/bphoto/OSLXV7EbCLC8tzz6PcVbRA/o.jpg", "is_closed": false, "url": "https://www.yelp.com/biz/marys-pizza-shack-novato?adjust_creative=K_rJo7VUP5JRiFo1Dydvmw&utm_campaign=yelp_api_v3&utm_medium=api_v3_business_search&utm_source=K_rJo7VUP5JRiFo1Dydvmw", "review_count": 140, "categories": [{"alias": "pizza", "title": "Pizza"}, {"alias": "italian", "title": "Italian"}], "rating": 3.0, "coordinates": {"latitude": 38.1227209748576, "longitude": -122.603542215895}, "transactions": ["delivery"], "price": "$$", "location": {"address1": "121 San Marin Dr", "address2": "", "address3": "", "city": "Novato", "zip_code": "94945", "country": "US", "state": "CA", "display_address": ["121 San Marin Dr", "Novato, CA 94945"]}, "phone": "+14158976266", "display_phone": "(415) 897-6266", "distance": 4953.11161938598}], "total": 1100, "region": {"center": {"longitude": -122.56210327148438, "latitude": 38.092372469871066}}}